count,timestamp,vane,wing,roll,pitch,yaw,lat,lon,speed,drag,lift,thrust,acc_x,acc_y,acc_z,gyro_x,gyro_y,gyro_z,hours,min,sec
0,16523962,-168.4,0.0,-1.0,-0.6,316.4,37.956291,23.655691,0.23,0.0,0.0,1.2,0.01,-0.02,1.00,0.07,-0.14,-0.07,9,3,54
1,16524060,-168.4,0.0,-1.0,-0.7,316.3,37.956291,23.655691,0.23,0.0,0.0,1.2,0.01,-0.01,1.00,0.21,-0.14,0.00,9,3,54
2,16524157,-168.4,0.0,-1.1,-0.7,316.2,37.956291,23.655691,0.23,0.0,0.0,1.2,0.01,-0.01,1.00,0.14,-0.21,-0.07,9,3,54
3,16524254,-168.4,0.0,-1.0,-0.7,316.0,37.956291,23.655691,0.23,0.0,0.0,1.2,0.01,-0.01,1.00,0.21,-0.21,-0.14,9,3,54
4,16524352,-168.4,0.0,-1.0,-0.7,315.9,37.956291,23.655691,0.23,0.0,0.0,1.2,0.01,-0.01,1.00,0.21,-0.21,-0.07,9,3,54
5,16524449,-168.4,0.0,-1.0,-0.7,315.8,37.956291,23.655691,0.23,0.0,0.0,1.2,0.01,-0.01,1.00,0.14,-0.21,-0.07,9,3,54
6,16524547,-168.4,0.0,-0.8,-0.5,315.8,37.956291,23.655691,0.23,0.0,0.0,1.2,0.01,-0.01,1.00,0.14,-0.21,-0.14,9,3,54
7,16524644,-168.4,0.0,-0.7,-0.2,315.9,37.956291,23.655691,0.23,0.0,0.0,1.2,0.01,-0.01,1.01,0.21,-0.21,-0.07,9,3,54
8,16524741,-168.4,0.0,-0.7,-0.3,316.0,37.956291,23.655691,0.23,0.0,0.0,1.2,0.01,-0.01,1.01,0.14,-0.21,-0.14,9,3,54
9,16524839,-168.4,0.0,-0.7,-0.4,316.0,37.956291,23.655691,0.23,0.0,0.0,1.2,0.01,-0.01,1.00,0.14,-0.21,-0.14,9,3,54
10,16524936,-168.4,0.0,-0.7,-0.4,316.1,37.956291,23.655691,0.23,0.0,0.0,1.2,0.01,-0.01,1.00,0.21,-0.28,-0.07,9,3,54
11,16525033,-168.4,0.0,-0.8,-0.5,316.1,37.956291,23.655691,0.23,0.0,0.0,1.2,0.01,-0.01,1.00,0.21,-0.21,-0.07,9,3,54
12,16525131,-168.4,0.0,-0.9,-0.5,316.0,37.956291,23.655691,0.23,0.0,0.0,1.2,0.01,-0.01,1.00,0.14,-0.14,0.00,9,3,54
13,16525228,-168.4,0.0,-0.9,-0.5,315.9,37.956291,23.655691,0.23,0.0,0.0,1.2,0.01,-0.01,1.00,0.14,-0.21,-0.07,9,3,54
14,16525326,-168.4,0.0,-0.9,-0.5,315.9,37.956291,23.655691,0.23,0.0,0.0,1.2,0.01,-0.01,1.01,0.14,-0.21,-0.07,9,3,54
15,16525423,-168.4,0.0,-0.9,-0.5,315.8,37.956291,23.655691,0.23,0.0,0.0,1.2,0.01,-0.01,1.01,0.14,-0.14,-0.07,9,3,54
16,16525520,-168.4,0.0,-0.9,-0.5,315.8,37.956291,23.655691,0.23,0.0,0.0,1.2,0.01,-0.02,1.00,0.14,-0.14,0.00,9,3,54
17,16525618,-168.4,0.0,-0.8,-0.4,315.8,37.956291,23.655691,0.23,0.0,0.0,1.2,0.01,-0.01,1.00,0.14,-0.21,0.00,9,3,54
18,16525715,-168.4,0.0,-0.7,-0.4,315.8,37.956291,23.655691,0.23,0.0,0.0,1.2,0.01,-0.01,1.00,0.14,-0.28,-0.14,9,3,54
19,16525812,-168.4,0.0,-0.7,-0.4,315.8,37.956291,23.655691,0.23,0.0,0.0,1.2,0.01,-0.01,1.00,0.14,-0.14,-0.07,9,3,54
20,16525910,-168.4,0.0,-0.7,-0.4,315.9,37.956291,23.655691,0.23,0.0,0.0,1.2,0.01,-0.01,1.00,0.21,-0.21,-0.07,9,3,54
21,16526007,-168.4,0.0,-0.8,-0.4,315.9,37.956291,23.655691,0.23,0.0,0.0,1.2,0.01,-0.01,1.00,0.21,-0.21,0.00,9,3,54
22,16526104,-168.4,0.0,-0.8,-0.4,315.9,37.956291,23.655691,0.23,0.0,0.0,1.2,0.01,-0.01,1.00,0.21,-0.21,0.00,9,3,54
23,16526202,-168.4,0.0,-0.8,-0.4,315.9,37.956291,23.655691,0.23,0.0,0.0,1.2,0.01,-0.01,1.00,0.21,-0.21,0.00,9,3,54
24,16526299,-168.4,0.0,-0.8,-0.4,316.0,37.956291,23.655691,0.23,0.0,0.0,1.2,0.01,-0.01,1.01,0.21,-0.14,-0.14,9,3,54
25,16526397,-168.4,0.0,-0.8,-0.3,316.0,37.956291,23.655691,0.23,0.0,0.0,1.2,0.01,-0.01,1.00,0.21,-0.21,-0.07,9,3,54
26,16526494,-168.4,0.0,-0.8,-0.4,316.0,37.956291,23.655691,0.23,0.0,0.0,1.2,0.01,-0.01,1.00,0.14,-0.14,-0.07,9,3,54
27,16526591,-168.4,0.0,-0.7,-0.4,316.0,37.956291,23.655691,0.23,0.0,0.0,1.2,0.01,-0.01,1.00,0.21,-0.21,0.00,9,3,54
28,16526689,-168.4,0.0,-0.7,-0.4,316.0,37.956291,23.655691,0.23,0.0,0.0,1.2,0.01,-0.01,1.00,0.14,-0.21,0.00,9,3,54
29,16526786,-168.4,0.0,-0.8,-0.4,316.0,37.956291,23.655691,0.23,0.0,0.0,1.2,0.01,-0.01,1.00,0.21,-0.21,-0.07,9,3,54
30,16526883,-168.4,0.0,-0.8,-0.4,316.0,37.956291,23.655691,0.23,0.0,0.0,1.2,0.01,-0.01,1.00,0.21,-0.21,-0.07,9,3,54
31,16526981,-168.4,0.0,-0.8,-0.4,316.0,37.956291,23.655691,0.23,0.0,0.0,1.2,0.01,-0.01,1.01,0.21,-0.21,-0.07,9,3,54
32,16527078,-168.4,0.0,-0.8,-0.5,315.9,37.956291,23.655691,0.23,0.0,0.0,1.2,0.01,-0.01,1.01,0.14,-0.21,0.00,9,3,54
33,16527176,-168.4,0.0,-0.8,-0.5,315.9,37.956291,23.655691,0.23,0.0,0.0,1.2,0.01,-0.01,1.01,0.14,-0.28,-0.07,9,3,54
34,16527273,-168.4,0.0,-0.8,-0.5,315.9,37.956291,23.655691,0.23,0.0,0.0,1.2,0.01,-0.01,1.00,0.14,-0.21,-0.14,9,3,54
35,16527370,-168.4,0.0,-0.8,-0.4,315.8,37.956291,23.655691,0.23,0.0,0.0,1.2,0.01,-0.01,1.00,0.21,-0.21,-0.07,9,3,54
36,16527468,-168.4,0.0,-0.8,-0.5,315.8,37.956291,23.655691,0.23,0.0,0.0,1.2,0.01,-0.01,1.00,0.21,-0.21,0.00,9,3,54
37,16527565,-168.4,0.0,-0.7,-0.3,315.8,37.956291,23.655691,0.23,0.0,0.0,1.2,0.01,-0.01,1.01,0.21,-0.21,-0.07,9,3,54
38,16527662,-168.4,0.0,-0.7,-0.3,315.9,37.956291,23.655691,0.38,0.0,0.0,1.2,0.01,-0.01,1.01,0.14,-0.14,-0.07,9,3,54
39,16527760,-168.4,0.0,-0.7,-0.3,315.9,37.956291,23.655691,0.38,0.0,0.0,1.2,0.01,-0.01,1.00,0.21,-0.21,0.00,9,3,54
40,16527857,-168.4,0.0,-0.8,-0.4,315.9,37.956291,23.655691,0.38,0.0,0.0,1.2,0.01,-0.01,1.00,0.21,-0.21,0.00,9,3,54
41,16527954,-168.4,0.0,-0.7,-0.3,316.0,37.956291,23.655691,0.38,0.0,0.0,1.2,0.01,-0.01,1.00,0.14,-0.28,-0.07,9,3,54
42,16528052,-168.4,0.0,-0.7,-0.3,316.0,37.956291,23.655691,0.38,0.0,0.0,1.2,0.01,-0.01,1.00,0.07,-0.21,-0.07,9,3,54
43,16528149,-168.4,0.0,-0.7,-0.3,316.0,37.956291,23.655691,0.38,0.0,0.0,1.2,0.01,-0.01,1.00,0.14,-0.14,-0.07,9,3,54
44,16528247,-168.4,0.0,-0.7,-0.4,316.0,37.956291,23.655691,0.38,0.0,0.0,1.2,0.01,-0.01,1.00,0.21,-0.21,-0.07,9,3,54
45,16528344,-168.4,0.0,-0.7,-0.4,316.0,37.956291,23.655691,0.38,0.0,0.0,1.2,0.01,-0.01,1.01,0.14,-0.21,-0.14,9,3,54
46,16528441,-168.4,0.0,-0.7,-0.3,316.0,37.956291,23.655691,0.38,0.0,0.0,1.2,0.01,-0.01,1.01,0.21,-0.28,-0.14,9,3,54
47,16528539,-168.4,0.0,-0.8,-0.4,316.0,37.956291,23.655691,0.38,0.0,0.0,1.2,0.01,-0.01,1.00,0.14,-0.14,-0.14,9,3,54
48,16528636,-168.4,0.0,-0.8,-0.4,316.0,37.956291,23.655691,0.38,0.0,0.0,1.2,0.01,-0.01,1.00,0.14,-0.21,-0.07,9,3,54
49,16528733,-168.4,0.0,-0.8,-0.4,316.0,37.956291,23.655691,0.38,0.0,0.0,1.2,0.01,-0.01,1.01,0.21,-0.14,0.00,9,3,54
50,16528831,-168.4,0.0,-0.8,-0.4,316.0,37.956295,23.655689,0.38,0.0,0.0,1.2,0.01,-0.01,1.01,0.14,-0.14,0.00,9,3,55
51,16528928,-168.4,0.0,-0.8,-0.4,316.0,37.956295,23.655689,0.38,0.0,0.0,1.2,0.01,-0.01,1.01,0.14,-0.21,0.00,9,3,55
52,16529026,-168.4,0.0,-0.7,-0.4,316.0,37.956295,23.655689,0.38,0.0,0.0,1.2,0.01,-0.01,1.01,0.14,-0.21,-0.07,9,3,55
53,16529123,-168.4,0.0,-0.7,-0.3,316.0,37.956295,23.655689,0.38,0.0,0.0,1.2,0.01,-0.01,1.00,0.14,-0.21,-0.07,9,3,55
54,16529220,-168.4,0.0,-0.7,-0.4,316.1,37.956295,23.655689,0.38,0.0,0.0,1.2,0.01,-0.01,1.00,0.21,-0.21,-0.07,9,3,55
55,16529318,-168.4,0.0,-0.7,-0.3,316.1,37.956295,23.655689,0.38,0.0,0.0,1.2,0.01,-0.01,1.00,0.14,-0.21,-0.07,9,3,55
56,16529415,-168.4,0.0,-0.7,-0.3,316.1,37.956295,23.655689,0.38,0.0,0.0,1.2,0.01,-0.01,1.01,0.21,-0.21,-0.07,9,3,55
57,16529512,-168.4,0.0,-0.7,-0.2,316.2,37.956295,23.655689,0.38,0.0,0.0,1.2,0.01,-0.01,1.01,0.14,-0.21,-0.07,9,3,55
58,16529610,-168.4,0.0,-0.7,-0.3,316.3,37.956295,23.655689,0.38,0.0,0.0,1.2,0.01,-0.01,1.01,0.21,-0.14,-0.07,9,3,55
59,16529707,-168.4,0.0,-0.7,-0.3,316.3,37.956295,23.655689,0.38,0.0,0.0,1.2,0.01,-0.01,1.01,0.14,-0.21,-0.07,9,3,55
60,16529804,-168.4,0.0,-0.7,-0.3,316.4,37.956295,23.655689,0.38,0.0,0.0,1.2,0.01,-0.01,1.00,0.14,-0.21,-0.14,9,3,55
61,16529902,-168.4,0.0,-0.7,-0.3,316.5,37.956295,23.655689,0.38,0.0,0.0,1.2,0.01,-0.01,1.00,0.14,-0.14,-0.07,9,3,55
62,16529999,-168.4,0.0,-0.8,-0.4,316.5,37.956295,23.655689,0.38,0.0,0.0,1.2,0.01,-0.01,1.01,0.14,-0.21,-0.14,9,3,55
63,16530097,-168.4,0.0,-0.8,-0.4,316.4,37.956295,23.655689,0.38,0.0,0.0,1.2,0.01,-0.01,1.00,0.21,-0.21,-0.07,9,3,55
64,16530194,-168.4,0.0,-0.8,-0.5,316.4,37.956295,23.655689,0.38,0.0,0.0,1.2,0.01,-0.01,1.01,0.14,-0.21,-0.07,9,3,55
65,16530291,-168.4,0.0,-0.8,-0.5,316.4,37.956295,23.655689,0.38,0.0,0.0,1.2,0.01,-0.01,1.00,0.14,-0.21,-0.07,9,3,55
66,16530389,-168.4,0.0,-0.8,-0.5,316.4,37.956295,23.655689,0.38,0.0,0.0,1.2,0.01,-0.01,1.00,0.14,-0.14,-0.14,9,3,55
67,16530486,-168.4,0.0,-0.8,-0.4,316.3,37.956295,23.655689,0.38,0.0,0.0,1.2,0.01,-0.01,1.01,0.21,-0.14,-0.07,9,3,55
68,16530583,-168.4,0.0,-0.7,-0.3,316.4,37.956295,23.655689,0.38,0.0,0.0,1.2,0.01,-0.01,1.01,0.14,-0.21,0.00,9,3,55
69,16530681,-168.4,0.0,-0.7,-0.3,316.4,37.956295,23.655689,0.38,0.0,0.0,1.2,0.01,-0.01,1.00,0.21,-0.21,-0.07,9,3,55
70,16530778,-168.4,0.0,-0.7,-0.4,316.5,37.956295,23.655689,0.38,0.0,0.0,1.2,0.01,-0.01,1.00,0.07,-0.21,-0.07,9,3,55
71,16530875,-168.4,0.0,-0.7,-0.3,316.5,37.956295,23.655689,0.38,0.0,0.0,1.2,0.01,-0.01,1.01,0.28,-0.21,-0.07,9,3,55
72,16530973,-168.4,0.0,-0.7,-0.3,316.5,37.956295,23.655689,0.38,0.0,0.0,1.2,0.01,-0.01,1.00,0.07,-0.21,0.00,9,3,55
73,16531070,-168.4,0.0,-0.6,-0.3,316.6,37.956295,23.655689,0.38,0.0,0.0,1.2,0.01,-0.01,1.01,0.28,-0.21,-0.07,9,3,55
74,16531168,-168.4,0.0,-0.7,-0.2,316.7,37.956295,23.655689,0.38,0.0,0.0,1.2,0.01,-0.01,1.01,0.14,-0.21,-0.07,9,3,55
75,16531265,-168.4,0.0,-0.7,-0.3,316.8,37.956295,23.655689,0.38,0.0,0.0,1.2,0.01,-0.01,1.00,0.28,-0.21,0.00,9,3,55
76,16531362,-168.4,0.0,-0.7,-0.3,316.9,37.956295,23.655689,0.38,0.0,0.0,1.2,0.01,-0.01,1.00,0.14,-0.21,-0.07,9,3,55
77,16531460,-168.4,0.0,-0.7,-0.3,316.9,37.956295,23.655689,0.38,0.0,0.0,1.2,0.01,-0.01,1.00,0.14,-0.14,0.00,9,3,55
78,16531557,-168.4,0.0,-0.9,-0.4,316.9,37.956295,23.655689,0.38,0.0,0.0,1.2,0.01,-0.01,1.01,0.21,-0.14,-0.07,9,3,55
79,16531654,-168.4,0.0,-0.8,-0.5,316.9,37.956295,23.655689,0.38,0.0,0.0,1.2,0.01,-0.01,1.00,0.21,-0.21,-0.07,9,3,55
80,16531752,-168.4,0.0,-0.8,-0.5,316.8,37.956295,23.655689,0.38,0.0,0.0,1.2,0.01,-0.01,1.00,0.21,-0.21,0.00,9,3,55
81,16531849,-168.4,0.0,-0.8,-0.4,316.8,37.956295,23.655689,0.38,0.0,0.0,1.2,0.01,-0.01,1.00,0.14,-0.21,-0.07,9,3,55
82,16531947,-168.4,0.0,-0.8,-0.5,316.8,37.956295,23.655689,0.38,0.0,0.0,1.2,0.01,-0.01,1.01,0.14,-0.21,-0.07,9,3,55
83,16532044,-168.4,0.0,-0.5,-0.1,316.9,37.956295,23.655689,0.38,0.0,0.0,1.2,0.01,-0.01,1.01,0.21,-0.21,-0.07,9,3,55
84,16532141,-168.4,0.0,-0.6,-0.2,317.1,37.956295,23.655689,0.38,0.0,0.0,1.2,0.01,-0.01,1.00,0.21,-0.21,0.00,9,3,55
85,16532239,-168.4,0.0,-0.6,-0.2,317.2,37.956295,23.655689,0.38,0.0,0.0,1.2,0.01,-0.01,1.00,0.21,-0.21,0.00,9,3,55
86,16532336,-168.4,0.0,-0.6,-0.2,317.4,37.956295,23.655689,0.38,0.0,0.0,1.2,0.01,-0.01,1.00,0.21,-0.14,-0.07,9,3,55
87,16532433,-168.4,0.0,-0.6,-0.2,317.5,37.956295,23.655689,0.38,0.0,0.0,1.2,0.01,-0.01,1.00,0.21,-0.21,-0.07,9,3,55
88,16532531,-168.4,0.0,-0.9,-0.5,317.4,37.956295,23.655689,0.38,0.0,0.0,1.2,0.01,-0.01,1.00,0.21,-0.21,-0.14,9,3,55
89,16532628,-168.4,0.0,-0.9,-0.5,317.3,37.956295,23.655689,0.38,0.0,0.0,1.2,0.01,-0.01,1.00,0.14,-0.21,-0.07,9,3,55
90,16532725,-168.4,0.0,-0.9,-0.5,317.3,37.956295,23.655689,0.38,0.0,0.0,1.2,0.01,-0.01,1.01,0.14,-0.21,-0.07,9,3,55
91,16532823,-168.4,0.0,-0.9,-0.5,317.2,37.956295,23.655689,0.38,0.0,0.0,1.2,0.01,-0.01,1.01,0.14,-0.21,-0.07,9,3,55
92,16532920,-168.4,0.0,-0.8,-0.5,317.2,37.956295,23.655689,0.38,0.0,0.0,1.2,0.01,-0.01,1.00,0.14,-0.14,-0.07,9,3,55
93,16533018,-168.4,0.0,-0.8,-0.4,317.1,37.956295,23.655689,0.38,0.0,0.0,1.2,0.01,-0.01,1.00,0.21,-0.14,-0.07,9,3,55
94,16533115,-168.4,0.0,-0.8,-0.4,317.1,37.956295,23.655689,0.38,0.0,0.0,1.2,0.01,-0.01,1.00,0.14,-0.14,-0.07,9,3,55
95,16533212,-168.4,0.0,-0.8,-0.4,317.1,37.956295,23.655689,0.38,0.0,0.0,1.2,0.01,-0.01,1.00,0.21,-0.21,-0.07,9,3,55
96,16533310,-168.4,0.0,-0.8,-0.4,317.1,37.956295,23.655689,0.38,0.0,0.0,1.2,0.01,-0.01,1.01,0.21,-0.21,-0.07,9,3,55
97,16533407,-168.4,0.0,-0.8,-0.4,317.1,37.956295,23.655689,0.38,0.0,0.0,1.2,0.01,-0.01,1.01,0.14,-0.21,-0.07,9,3,55
98,16533504,-168.4,0.0,-0.7,-0.3,317.2,37.956295,23.655689,0.38,0.0,0.0,1.2,0.01,-0.01,1.00,0.21,-0.21,0.00,9,3,55
99,16533602,-168.4,0.0,-0.7,-0.3,317.2,37.956295,23.655689,0.38,0.0,0.0,1.2,0.01,-0.01,1.00,0.14,-0.28,-0.07,9,3,55
100,16533699,-168.4,0.0,-0.7,-0.3,317.2,37.956295,23.655689,0.38,0.0,0.0,1.2,0.01,-0.01,1.00,0.21,-0.21,0.00,9,3,55
101,16533797,-168.4,0.0,-0.6,-0.3,317.3,37.956295,23.655689,0.38,0.0,0.0,1.2,0.01,-0.01,1.00,0.07,-0.21,-0.14,9,3,55
102,16533894,-168.4,0.0,-0.7,-0.3,317.3,37.956295,23.655689,0.38,0.0,0.0,1.2,0.01,-0.01,1.01,0.14,-0.14,-0.07,9,3,55
103,16533991,-168.4,0.0,-0.8,-0.4,317.3,37.956295,23.655689,0.38,0.0,0.0,1.2,0.01,-0.01,1.00,0.21,-0.21,-0.07,9,3,55
104,16534089,-168.4,0.0,-0.9,-0.4,317.3,37.956295,23.655689,0.38,0.0,0.0,1.2,0.01,-0.02,1.00,0.14,-0.21,0.00,9,3,55
105,16534186,-168.4,0.0,-0.8,-0.4,317.2,37.956295,23.655689,0.38,0.0,0.0,1.2,0.01,-0.01,1.01,0.21,-0.21,-0.07,9,3,55
106,16534283,-168.4,0.0,-0.9,-0.4,317.2,37.956295,23.655689,0.38,0.0,0.0,1.2,0.01,-0.01,1.01,0.14,-0.21,0.00,9,3,55
107,16534381,-168.4,0.0,-0.8,-0.4,317.2,37.956295,23.655689,0.38,0.0,0.0,1.2,0.01,-0.01,1.00,0.21,-0.21,-0.07,9,3,55
108,16534478,-168.4,0.0,-0.7,-0.3,317.2,37.956295,23.655689,0.38,0.0,0.0,1.2,0.01,-0.01,1.00,0.14,-0.21,-0.07,9,3,55
109,16534575,-168.4,0.0,-0.6,-0.3,317.3,37.956295,23.655689,0.38,0.0,0.0,1.2,0.01,-0.01,1.00,0.21,-0.28,-0.07,9,3,55
110,16534673,-168.4,0.0,-0.7,-0.3,317.3,37.956295,23.655689,0.38,0.0,0.0,1.2,0.01,-0.01,1.00,0.21,-0.21,-0.07,9,3,55
111,16534770,-168.4,0.0,-0.7,-0.3,317.4,37.956295,23.655689,0.38,0.0,0.0,1.2,0.01,-0.01,1.00,0.21,-0.21,0.00,9,3,55
112,16534868,-168.4,0.0,-0.7,-0.3,317.4,37.956295,23.655689,0.38,0.0,0.0,1.2,0.01,-0.01,1.00,0.14,-0.21,-0.07,9,3,55
113,16534965,-168.4,0.0,-0.6,-0.3,317.5,37.956295,23.655689,0.38,0.0,0.0,1.2,0.01,-0.01,1.00,0.14,-0.14,-0.07,9,3,55
114,16535062,-168.4,0.0,-0.7,-0.3,317.6,37.956295,23.655689,0.38,0.0,0.0,1.2,0.01,-0.01,1.00,0.07,-0.28,0.00,9,3,55
115,16535160,-168.4,0.0,-0.7,-0.3,317.6,37.956295,23.655689,0.38,0.0,0.0,1.2,0.01,-0.01,1.00,0.21,-0.14,-0.07,9,3,55
116,16535257,-168.4,0.0,-0.7,-0.3,317.7,37.956295,23.655689,0.38,0.0,0.0,1.2,0.01,-0.01,1.01,0.21,-0.14,-0.07,9,3,55
117,16535354,-168.4,0.0,-0.6,-0.3,317.8,37.956295,23.655689,0.38,0.0,0.0,1.2,0.01,-0.01,1.01,0.21,-0.21,0.00,9,3,55
118,16535452,-168.4,0.0,-0.7,-0.3,317.8,37.956295,23.655689,0.38,0.0,0.0,1.2,0.01,-0.01,1.00,0.21,-0.21,-0.07,9,3,55
119,16535549,-168.4,0.0,-0.8,-0.4,317.8,37.956295,23.655689,0.38,0.0,0.0,1.2,0.01,-0.01,1.01,0.21,-0.21,-0.14,9,3,55
120,16535646,-168.4,0.0,-0.8,-0.4,317.8,37.956295,23.655689,0.38,0.0,0.0,1.2,0.01,-0.01,1.00,0.21,-0.21,-0.14,9,3,55
121,16535744,-168.4,0.0,-0.8,-0.4,317.8,37.956295,23.655689,0.38,0.0,0.0,1.2,0.01,-0.01,1.01,0.21,-0.21,-0.14,9,3,55
122,16535841,-168.4,0.0,-0.9,-0.4,317.7,37.956295,23.655689,0.38,0.0,0.0,1.2,0.01,-0.02,1.01,0.21,-0.21,-0.07,9,3,55
123,16535939,-168.4,0.0,-0.8,-0.4,317.7,37.956295,23.655689,0.38,0.0,0.0,1.2,0.01,-0.01,1.00,0.21,-0.28,-0.07,9,3,55
124,16536036,-168.4,0.0,-0.8,-0.4,317.7,37.956295,23.655689,0.38,0.0,0.0,1.2,0.01,-0.01,1.00,0.07,-0.28,0.00,9,3,55
125,16536133,-168.4,0.0,-0.8,-0.4,317.7,37.956295,23.655689,0.38,0.0,0.0,1.2,0.01,-0.01,1.00,0.21,-0.21,0.00,9,3,55
126,16536231,-168.4,0.0,-0.7,-0.4,317.7,37.956295,23.655689,0.38,0.0,0.0,1.2,0.01,-0.01,1.00,0.14,-0.07,0.00,9,3,55
127,16536328,-168.4,0.0,-0.8,-0.4,317.7,37.956295,23.655689,0.38,0.0,0.0,1.2,0.01,-0.01,1.01,0.21,-0.14,-0.07,9,3,55
128,16536425,-168.4,0.0,-0.8,-0.4,317.7,37.956295,23.655689,0.38,0.0,0.0,1.2,0.01,-0.01,1.01,0.14,-0.21,0.00,9,3,55
129,16536523,-168.4,0.0,-0.9,-0.4,317.6,37.956295,23.655689,0.38,0.0,0.0,1.2,0.01,-0.01,1.00,0.14,-0.14,-0.07,9,3,55
130,16536620,-168.4,0.0,-0.9,-0.5,317.6,37.956295,23.655689,0.38,0.0,0.0,1.2,0.01,-0.01,1.00,0.21,-0.21,0.00,9,3,55
131,16536718,-168.4,0.0,-0.8,-0.5,317.6,37.956295,23.655689,0.38,0.0,0.0,1.2,0.01,-0.01,1.00,0.21,-0.28,-0.07,9,3,55
132,16536815,-168.4,0.0,-0.8,-0.5,317.5,37.956295,23.655689,0.38,0.0,0.0,1.2,0.01,-0.01,1.00,0.21,-0.21,-0.14,9,3,55
133,16536912,-168.4,0.0,-0.8,-0.5,317.5,37.956295,23.655689,0.38,0.0,0.0,1.2,0.01,-0.01,1.00,0.14,-0.21,-0.07,9,3,55
134,16537010,-168.4,0.0,-0.8,-0.4,317.4,37.956295,23.655689,0.38,0.0,0.0,1.2,0.01,-0.01,1.00,0.21,-0.28,0.00,9,3,55
135,16537107,-168.4,0.0,-0.8,-0.5,317.4,37.956295,23.655689,0.38,0.0,0.0,1.2,0.01,-0.01,1.00,0.14,-0.21,-0.07,9,3,55
136,16537204,-168.4,0.0,-0.9,-0.5,317.3,37.956295,23.655689,0.38,0.0,0.0,1.2,0.01,-0.01,1.00,0.21,-0.28,0.00,9,3,55
137,16537302,-168.4,0.0,-0.9,-0.5,317.3,37.956295,23.655689,0.38,0.0,0.0,1.2,0.01,-0.01,1.00,0.14,-0.28,0.00,9,3,55
138,16537399,-168.4,0.0,-0.8,-0.5,317.3,37.956295,23.655689,0.38,0.0,0.0,1.2,0.01,-0.01,1.01,0.14,-0.21,-0.07,9,3,55
139,16537496,-168.4,0.0,-0.9,-0.6,317.2,37.956295,23.655689,0.38,0.0,0.0,1.2,0.01,-0.01,1.00,0.21,-0.14,-0.07,9,3,55
140,16537594,-168.4,0.0,-0.9,-0.6,317.1,37.956295,23.655689,0.38,0.0,0.0,1.2,0.01,-0.01,1.00,0.14,-0.21,0.00,9,3,55
141,16537691,-168.4,0.0,-0.9,-0.5,317.0,37.956295,23.655689,0.38,0.0,0.0,1.2,0.01,-0.01,1.01,0.21,-0.21,-0.07,9,3,55
142,16537789,-168.4,0.0,-0.9,-0.6,316.9,37.956295,23.655689,0.39,0.0,0.0,1.2,0.01,-0.01,1.00,0.14,-0.21,0.00,9,3,55
143,16537886,-168.4,0.0,-0.9,-0.6,316.8,37.956295,23.655689,0.39,0.0,0.0,1.2,0.01,-0.01,1.00,0.21,-0.21,-0.07,9,3,55
144,16537983,-168.4,0.0,-0.7,-0.4,316.9,37.956295,23.655689,0.39,0.0,0.0,1.2,0.01,-0.01,1.00,0.14,-0.14,0.00,9,3,55
145,16538081,-168.4,0.0,-0.6,-0.3,316.9,37.956295,23.655689,0.39,0.0,0.0,1.2,0.01,-0.01,1.01,0.21,-0.21,-0.14,9,3,55
146,16538178,-168.4,0.0,-0.7,-0.3,317.0,37.956295,23.655689,0.39,0.0,0.0,1.2,0.01,-0.01,1.00,0.14,-0.21,-0.07,9,3,55
147,16538275,-168.4,0.0,-0.7,-0.3,317.0,37.956295,23.655689,0.39,0.0,0.0,1.2,0.01,-0.01,1.00,0.14,-0.21,0.00,9,3,55
148,16538373,-168.4,0.0,-0.7,-0.3,317.1,37.956295,23.655689,0.39,0.0,0.0,1.2,0.01,-0.01,1.00,0.21,-0.21,-0.07,9,3,55
149,16538470,-168.4,0.0,-0.7,-0.3,317.1,37.956295,23.655689,0.39,0.0,0.0,1.2,0.01,-0.01,1.01,0.14,-0.14,-0.07,9,3,55
150,16538568,-168.4,0.0,-0.7,-0.3,317.2,37.956295,23.655689,0.39,0.0,0.0,1.2,0.01,-0.01,1.01,0.14,-0.14,-0.07,9,3,55
151,16538665,-168.4,0.0,-0.7,-0.3,317.2,37.956295,23.655689,0.39,0.0,0.0,1.2,0.01,-0.01,1.01,0.14,-0.21,-0.07,9,3,55
152,16538762,-168.4,0.0,-0.7,-0.3,317.3,37.956295,23.655689,0.39,0.0,0.0,1.2,0.01,-0.01,1.00,0.21,-0.14,0.00,9,3,55
153,16538860,-168.4,0.0,-0.7,-0.4,317.3,37.956295,23.655689,0.39,0.0,0.0,1.2,0.01,-0.01,1.00,0.21,-0.28,-0.07,9,3,55
154,16538957,-168.4,0.0,-0.7,-0.3,317.4,37.956295,23.655689,0.39,0.0,0.0,1.2,0.01,-0.01,1.00,0.21,-0.21,-0.07,9,3,56
155,16539054,-168.4,0.0,-0.8,-0.3,317.4,37.956295,23.655689,0.39,0.0,0.0,1.2,0.01,-0.01,1.01,0.21,-0.14,-0.07,9,3,56
156,16539152,-168.4,0.0,-0.7,-0.3,317.4,37.956295,23.655689,0.39,0.0,0.0,1.2,0.01,-0.01,1.01,0.14,-0.14,-0.07,9,3,56
157,16539249,-168.4,0.0,-0.7,-0.3,317.5,37.956295,23.655689,0.39,0.0,0.0,1.2,0.01,-0.01,1.00,0.21,-0.21,-0.07,9,3,56
158,16539346,-168.4,0.0,-0.7,-0.4,317.5,37.956295,23.655689,0.39,0.0,0.0,1.2,0.01,-0.01,1.00,0.28,-0.14,-0.07,9,3,56
159,16539444,-168.4,0.0,-0.8,-0.5,317.4,37.956295,23.655689,0.39,0.0,0.0,1.2,0.01,-0.01,1.00,0.14,-0.21,-0.07,9,3,56
160,16539541,-168.4,0.0,-0.9,-0.6,317.3,37.956295,23.655689,0.39,0.0,0.0,1.2,0.01,-0.01,1.00,0.21,-0.14,0.00,9,3,56
161,16539639,-168.4,0.0,-1.0,-0.6,317.2,37.956295,23.655689,0.39,0.0,0.0,1.2,0.01,-0.01,1.00,0.07,-0.21,-0.07,9,3,56
162,16539736,-168.4,0.0,-1.0,-0.6,317.1,37.956295,23.655689,0.39,0.0,0.0,1.2,0.01,-0.01,1.00,0.14,-0.21,-0.07,9,3,56
163,16539833,-168.4,0.0,-1.0,-0.6,317.0,37.956295,23.655689,0.39,0.0,0.0,1.2,0.01,-0.01,1.00,0.28,-0.14,0.00,9,3,56
164,16539931,-168.4,0.0,-1.0,-0.6,316.9,37.956295,23.655689,0.39,0.0,0.0,1.2,0.01,-0.01,1.01,0.14,-0.14,0.00,9,3,56
165,16540028,-168.4,0.0,-1.0,-0.6,316.8,37.956295,23.655689,0.39,0.0,0.0,1.2,0.01,-0.01,1.00,0.21,-0.21,0.00,9,3,56
166,16540125,-168.4,0.0,-1.0,-0.6,316.7,37.956295,23.655689,0.39,0.0,0.0,1.2,0.01,-0.01,1.01,0.21,-0.21,0.00,9,3,56
167,16540223,-168.4,0.0,-1.0,-0.6,316.6,37.956295,23.655689,0.39,0.0,0.0,1.2,0.01,-0.01,1.00,0.21,-0.28,-0.14,9,3,56
168,16540320,-168.4,0.0,-0.9,-0.6,316.5,37.956295,23.655689,0.39,0.0,0.0,1.2,0.01,-0.01,1.00,0.21,-0.21,-0.07,9,3,56
169,16540418,-168.4,0.0,-0.9,-0.6,316.5,37.956295,23.655689,0.39,0.0,0.0,1.2,0.01,-0.01,1.00,0.21,-0.14,0.00,9,3,56
170,16540515,-168.4,0.0,-0.7,-0.4,316.5,37.956295,23.655689,0.39,0.0,0.0,1.2,0.01,-0.01,1.00,0.21,-0.21,-0.07,9,3,56
171,16540612,-168.4,0.0,-0.7,-0.3,316.5,37.956295,23.655689,0.39,0.0,0.0,1.2,0.01,-0.01,1.00,0.21,-0.14,-0.07,9,3,56
172,16540710,-168.4,0.0,-0.7,-0.3,316.6,37.956295,23.655689,0.39,0.0,0.0,1.2,0.01,-0.01,1.00,0.21,-0.21,-0.07,9,3,56
173,16540807,-168.4,0.0,-0.7,-0.4,316.6,37.956295,23.655689,0.39,0.0,0.0,1.2,0.01,-0.01,1.00,0.14,-0.21,-0.07,9,3,56
174,16540904,-168.4,0.0,-0.7,-0.3,316.6,37.956295,23.655689,0.39,0.0,0.0,1.2,0.01,-0.01,1.00,0.21,-0.14,-0.07,9,3,56
175,16541002,-168.4,0.0,-0.9,-0.5,316.5,37.956295,23.655689,0.39,0.0,0.0,1.2,0.01,-0.01,1.00,0.21,-0.14,-0.07,9,3,56
176,16541099,-168.4,0.0,-0.9,-0.5,316.4,37.956295,23.655689,0.39,0.0,0.0,1.2,0.01,-0.01,1.01,0.14,-0.21,-0.07,9,3,56
177,16541196,-168.4,0.0,-0.9,-0.5,316.4,37.956295,23.655689,0.39,0.0,0.0,1.2,0.01,-0.01,1.01,0.21,-0.21,0.00,9,3,56
178,16541294,-168.4,0.0,-0.9,-0.5,316.3,37.956295,23.655689,0.39,0.0,0.0,1.2,0.01,-0.01,1.00,0.21,-0.28,-0.07,9,3,56
179,16541391,-168.4,0.0,-0.9,-0.5,316.2,37.956295,23.655689,0.39,0.0,0.0,1.2,0.01,-0.01,1.00,0.14,-0.14,-0.07,9,3,56
180,16541489,-168.4,0.0,-0.7,-0.4,316.3,37.956295,23.655689,0.39,0.0,0.0,1.2,0.01,-0.01,1.00,0.21,-0.14,-0.07,9,3,56
181,16541586,-168.4,0.0,-0.8,-0.3,316.3,37.956295,23.655689,0.39,0.0,0.0,1.2,0.01,-0.01,1.01,0.21,-0.21,-0.07,9,3,56
182,16541683,-168.4,0.0,-0.7,-0.4,316.3,37.956295,23.655689,0.39,0.0,0.0,1.2,0.01,-0.01,1.00,0.07,-0.21,-0.14,9,3,56
183,16541781,-168.4,0.0,-0.8,-0.4,316.3,37.956295,23.655689,0.39,0.0,0.0,1.2,0.01,-0.01,1.00,0.21,-0.21,-0.07,9,3,56
184,16541878,-168.4,0.0,-0.8,-0.4,316.3,37.956295,23.655689,0.39,0.0,0.0,1.2,0.01,-0.01,1.00,0.21,-0.21,0.00,9,3,56
185,16541975,-168.4,0.0,-0.6,-0.2,316.5,37.956295,23.655689,0.39,0.0,0.0,1.2,0.01,-0.01,1.00,0.21,-0.28,-0.07,9,3,56
186,16542073,-168.4,0.0,-0.5,-0.1,316.6,37.956295,23.655689,0.39,0.0,0.0,1.2,0.01,-0.01,1.00,0.14,-0.14,-0.14,9,3,56
187,16542170,-168.4,0.0,-0.6,-0.2,316.7,37.956295,23.655689,0.39,0.0,0.0,1.2,0.01,-0.01,1.01,0.21,-0.21,0.00,9,3,56
188,16542267,-168.4,0.0,-0.6,-0.2,316.9,37.956295,23.655689,0.39,0.0,0.0,1.2,0.01,-0.01,1.01,0.21,-0.14,-0.07,9,3,56
189,16542365,-168.4,0.0,-0.6,-0.2,317.0,37.956295,23.655689,0.39,0.0,0.0,1.2,0.01,-0.01,1.01,0.21,-0.21,-0.07,9,3,56
190,16542462,-168.4,0.0,-0.7,-0.3,317.0,37.956295,23.655689,0.39,0.0,0.0,1.2,0.01,-0.01,1.01,0.21,-0.21,-0.14,9,3,56
191,16542560,-168.4,0.0,-0.7,-0.3,317.1,37.956295,23.655689,0.39,0.0,0.0,1.2,0.01,-0.02,1.00,0.14,-0.21,0.00,9,3,56
192,16542657,-168.4,0.0,-0.7,-0.3,317.2,37.956295,23.655689,0.39,0.0,0.0,1.2,0.01,-0.01,1.01,0.21,-0.21,-0.14,9,3,56
193,16542754,-168.4,0.0,-0.7,-0.3,317.2,37.956295,23.655689,0.39,0.0,0.0,1.2,0.01,-0.01,1.00,0.14,-0.14,-0.07,9,3,56
194,16542852,-168.4,0.0,-0.7,-0.3,317.3,37.956295,23.655689,0.39,0.0,0.0,1.2,0.01,-0.01,1.00,0.14,-0.21,-0.07,9,3,56
195,16542949,-168.4,0.0,-0.8,-0.4,317.3,37.956295,23.655689,0.39,0.0,0.0,1.2,0.01,-0.01,1.00,0.21,-0.14,-0.14,9,3,56
196,16543046,-168.4,0.0,-0.8,-0.4,317.3,37.956295,23.655689,0.39,0.0,0.0,1.2,0.01,-0.01,1.00,0.21,-0.21,-0.14,9,3,56
197,16543144,-168.4,0.0,-0.8,-0.4,317.3,37.956295,23.655689,0.39,0.0,0.0,1.2,0.01,-0.01,1.00,0.28,-0.21,-0.07,9,3,56
198,16543241,-168.4,0.0,-0.8,-0.4,317.2,37.956295,23.655689,0.39,0.0,0.0,1.2,0.01,-0.01,1.01,0.07,-0.21,0.00,9,3,56
199,16543339,-168.4,0.0,-0.8,-0.4,317.2,37.956295,23.655689,0.39,0.0,0.0,1.2,0.01,-0.01,1.01,0.14,-0.14,-0.07,9,3,56
200,16543436,-168.4,0.0,-0.9,-0.4,317.2,37.956295,23.655689,0.39,0.0,0.0,1.2,0.01,-0.01,1.01,0.07,-0.14,-0.07,9,3,56
201,16543533,-168.4,0.0,-0.9,-0.5,317.1,37.956295,23.655689,0.39,0.0,0.0,1.2,0.01,-0.01,1.01,0.07,-0.21,-0.14,9,3,56
202,16543631,-168.4,0.0,-0.9,-0.5,317.1,37.956295,23.655689,0.39,0.0,0.0,1.2,0.01,-0.01,1.01,0.21,-0.21,-0.07,9,3,56
203,16543728,-168.4,0.0,-0.9,-0.5,317.0,37.956295,23.655689,0.39,0.0,0.0,1.2,0.01,-0.01,1.00,0.21,-0.21,-0.07,9,3,56
204,16543825,-168.4,0.0,-0.9,-0.5,317.0,37.956295,23.655689,0.39,0.0,0.0,1.2,0.01,-0.01,1.00,0.21,-0.21,-0.14,9,3,56
205,16543923,-168.4,0.0,-0.8,-0.4,316.9,37.956295,23.655689,0.39,0.0,0.0,1.2,0.01,-0.01,1.00,0.14,-0.21,-0.14,9,3,56
206,16544020,-168.4,0.0,-0.8,-0.5,316.9,37.956295,23.655689,0.39,0.0,0.0,1.2,0.01,-0.01,1.00,0.21,-0.28,0.00,9,3,56
207,16544117,-168.4,0.0,-0.8,-0.5,316.9,37.956295,23.655689,0.39,0.0,0.0,1.2,0.01,-0.01,1.00,0.14,-0.21,-0.07,9,3,56
208,16544215,-168.4,0.0,-0.8,-0.4,316.9,37.956295,23.655689,0.39,0.0,0.0,1.2,0.01,-0.01,1.00,0.14,-0.21,-0.07,9,3,56
209,16544312,-168.4,0.0,-0.8,-0.4,316.9,37.956295,23.655689,0.39,0.0,0.0,1.2,0.01,-0.01,1.01,0.21,-0.14,-0.07,9,3,56
210,16544410,-168.4,0.0,-0.8,-0.4,316.9,37.956295,23.655689,0.39,0.0,0.0,1.2,0.01,-0.01,1.01,0.14,-0.21,-0.14,9,3,56
211,16544507,-168.4,0.0,-0.8,-0.4,316.9,37.956295,23.655689,0.39,0.0,0.0,1.2,0.01,-0.01,1.00,0.21,-0.21,-0.07,9,3,56
212,16544604,-168.4,0.0,-0.8,-0.4,316.9,37.956295,23.655689,0.39,0.0,0.0,1.2,0.01,-0.01,1.00,0.21,-0.21,-0.07,9,3,56
213,16544702,-168.4,0.0,-0.8,-0.4,316.9,37.956295,23.655689,0.39,0.0,0.0,1.2,0.01,-0.01,1.01,0.21,-0.21,-0.07,9,3,56
214,16544799,-168.4,0.0,-0.8,-0.4,316.9,37.956295,23.655689,0.39,0.0,0.0,1.2,0.01,-0.01,1.00,0.21,-0.28,0.00,9,3,56
215,16544896,-168.4,0.0,-0.7,-0.3,316.9,37.956295,23.655689,0.39,0.0,0.0,1.2,0.01,-0.01,1.00,0.14,-0.21,-0.14,9,3,56
216,16544994,-168.4,0.0,-0.6,-0.3,317.0,37.956295,23.655689,0.39,0.0,0.0,1.2,0.01,-0.01,1.00,0.21,-0.21,0.00,9,3,56
217,16545091,-168.4,0.0,-0.6,-0.3,317.1,37.956295,23.655689,0.39,0.0,0.0,1.2,0.01,-0.01,1.00,0.21,-0.14,-0.07,9,3,56
218,16545189,-168.4,0.0,-0.7,-0.3,317.1,37.956295,23.655689,0.39,0.0,0.0,1.2,0.01,-0.01,1.01,0.14,-0.21,-0.14,9,3,56
219,16545286,-168.4,0.0,-0.7,-0.3,317.2,37.956295,23.655689,0.39,0.0,0.0,1.2,0.01,-0.01,1.00,0.14,-0.21,-0.07,9,3,56
220,16545383,-168.4,0.0,-0.7,-0.3,317.3,37.956295,23.655689,0.39,0.0,0.0,1.2,0.01,-0.01,1.00,0.21,-0.21,-0.07,9,3,56
221,16545481,-168.4,0.0,-0.8,-0.5,317.2,37.956295,23.655689,0.39,0.0,0.0,1.2,0.01,-0.01,1.01,0.21,-0.14,-0.14,9,3,56
222,16545578,-168.4,0.0,-0.9,-0.4,317.2,37.956295,23.655689,0.39,0.0,0.0,1.2,0.01,-0.01,1.00,0.21,-0.21,-0.07,9,3,56
223,16545675,-168.4,0.0,-0.8,-0.5,317.1,37.956295,23.655689,0.39,0.0,0.0,1.2,0.01,-0.01,1.01,0.21,-0.21,-0.14,9,3,56
224,16545773,-168.4,0.0,-0.8,-0.5,317.1,37.956295,23.655689,0.39,0.0,0.0,1.2,0.01,-0.01,1.00,0.07,-0.21,-0.07,9,3,56
225,16545870,-168.4,0.0,-0.8,-0.5,317.1,37.956295,23.655689,0.39,0.0,0.0,1.2,0.01,-0.01,1.00,0.21,-0.21,-0.14,9,3,56
226,16545967,-168.4,0.0,-0.8,-0.4,317.1,37.956295,23.655689,0.39,0.0,0.0,1.2,0.01,-0.01,1.00,0.21,-0.14,-0.07,9,3,56
227,16546065,-168.4,0.0,-0.7,-0.4,317.1,37.956295,23.655689,0.39,0.0,0.0,1.2,0.01,-0.01,1.00,0.14,-0.21,0.00,9,3,56
228,16546162,-168.4,0.0,-0.8,-0.4,317.1,37.956295,23.655689,0.39,0.0,0.0,1.2,0.01,-0.01,1.00,0.14,-0.14,-0.07,9,3,56
229,16546260,-168.4,0.0,-0.8,-0.4,317.1,37.956295,23.655689,0.39,0.0,0.0,1.2,0.01,-0.01,1.00,0.21,-0.14,-0.07,9,3,56
230,16546357,-168.4,0.0,-0.8,-0.4,317.1,37.956295,23.655689,0.39,0.0,0.0,1.2,0.01,-0.01,1.01,0.14,-0.21,0.00,9,3,56
231,16546454,-168.4,0.0,-0.7,-0.2,317.2,37.956295,23.655689,0.39,0.0,0.0,1.2,0.01,-0.01,1.00,0.14,-0.21,-0.07,9,3,56
232,16546552,-168.4,0.0,-0.7,-0.2,317.3,37.956295,23.655689,0.39,0.0,0.0,1.2,0.01,-0.01,1.00,0.14,-0.14,-0.14,9,3,56
233,16546649,-168.4,0.0,-0.7,-0.3,317.3,37.956295,23.655689,0.39,0.0,0.0,1.2,0.01,-0.01,1.01,0.21,-0.14,0.00,9,3,56
234,16546746,-168.4,0.0,-0.6,-0.3,317.4,37.956295,23.655689,0.39,0.0,0.0,1.2,0.01,-0.01,1.01,0.21,-0.21,-0.14,9,3,56
235,16546844,-168.4,0.0,-0.7,-0.2,317.5,37.956295,23.655689,0.39,0.0,0.0,1.2,0.01,-0.01,1.01,0.14,-0.28,-0.07,9,3,56
236,16546941,-168.4,0.0,-0.7,-0.3,317.5,37.956295,23.655689,0.39,0.0,0.0,1.2,0.01,-0.01,1.01,0.21,-0.21,-0.07,9,3,56
237,16547039,-168.4,0.0,-0.7,-0.4,317.5,37.956295,23.655689,0.39,0.0,0.0,1.2,0.01,-0.01,1.00,0.14,-0.21,-0.07,9,3,56
238,16547136,-168.4,0.0,-0.7,-0.3,317.6,37.956295,23.655689,0.39,0.0,0.0,1.2,0.01,-0.01,1.00,0.14,-0.14,-0.14,9,3,56
239,16547233,-168.4,0.0,-0.8,-0.3,317.6,37.956295,23.655689,0.39,0.0,0.0,1.2,0.01,-0.02,1.00,0.14,-0.21,-0.07,9,3,56
240,16547331,-168.4,0.0,-0.7,-0.4,317.7,37.956295,23.655689,0.39,0.0,0.0,1.2,0.01,-0.01,1.00,0.14,-0.14,-0.07,9,3,56
241,16547428,-168.4,0.0,-0.8,-0.5,317.6,37.956295,23.655689,0.39,0.0,0.0,1.2,0.01,-0.01,1.00,0.14,-0.21,-0.07,9,3,56
242,16547525,-168.4,0.0,-0.9,-0.5,317.5,37.956295,23.655689,0.39,0.0,0.0,1.2,0.01,-0.01,1.00,0.14,-0.14,-0.07,9,3,56
243,16547623,-168.4,0.0,-0.9,-0.5,317.5,37.956295,23.655689,0.39,0.0,0.0,1.2,0.01,-0.01,1.00,0.21,-0.28,-0.07,9,3,56
244,16547720,-168.4,0.0,-0.9,-0.5,317.4,37.956295,23.655689,0.19,0.0,0.0,1.2,0.01,-0.01,1.00,0.14,-0.21,-0.07,9,3,56
245,16547817,-168.4,0.0,-0.9,-0.5,317.4,37.956295,23.655689,0.19,0.0,0.0,1.2,0.01,-0.01,1.00,0.28,-0.14,-0.14,9,3,56
246,16547915,-168.4,0.0,-0.8,-0.3,317.4,37.956295,23.655689,0.19,0.0,0.0,1.2,0.01,-0.01,1.01,0.07,-0.21,-0.07,9,3,56
247,16548012,-168.4,0.0,-0.8,-0.3,317.4,37.956295,23.655689,0.19,0.0,0.0,1.2,0.01,-0.01,1.00,0.14,-0.21,-0.14,9,3,56
248,16548110,-168.4,0.0,-0.8,-0.3,317.5,37.956295,23.655689,0.19,0.0,0.0,1.2,0.01,-0.02,1.00,0.21,-0.21,0.00,9,3,56
249,16548207,-168.4,0.0,-0.7,-0.3,317.5,37.956295,23.655689,0.19,0.0,0.0,1.2,0.01,-0.01,1.00,0.21,-0.21,0.00,9,3,56
250,16548304,-168.4,0.0,-0.7,-0.3,317.5,37.956295,23.655689,0.19,0.0,0.0,1.2,0.01,-0.01,1.00,0.14,-0.21,-0.07,9,3,56
251,16548402,-168.4,0.0,-0.8,-0.4,317.5,37.956295,23.655689,0.19,0.0,0.0,1.2,0.01,-0.01,1.00,0.28,-0.28,-0.07,9,3,56
252,16548499,-168.4,0.0,-0.8,-0.4,317.5,37.956295,23.655689,0.19,0.0,0.0,1.2,0.01,-0.01,1.00,0.14,-0.21,0.00,9,3,56
253,16548596,-168.4,0.0,-0.8,-0.4,317.5,37.956295,23.655689,0.19,0.0,0.0,1.2,0.01,-0.01,1.00,0.14,-0.21,0.00,9,3,56
254,16548694,-168.4,0.0,-0.8,-0.4,317.4,37.956295,23.655689,0.19,0.0,0.0,1.2,0.01,-0.01,1.01,0.14,-0.21,-0.07,9,3,56
255,16548791,-168.4,0.0,-0.8,-0.4,317.4,37.956295,23.655689,0.19,0.0,0.0,1.2,0.01,-0.01,1.00,0.28,-0.21,-0.07,9,3,56
256,16548888,-168.4,0.0,-0.7,-0.3,317.5,37.956295,23.655691,0.19,0.0,0.0,1.2,0.01,-0.02,1.00,0.14,-0.21,-0.07,9,3,57
257,16548986,-168.4,0.0,-0.6,-0.2,317.6,37.956295,23.655691,0.19,0.0,0.0,1.2,0.01,-0.01,1.01,0.14,-0.21,-0.14,9,3,57
258,16549083,-168.4,0.0,-0.7,-0.2,317.7,37.956295,23.655691,0.19,0.0,0.0,1.2,0.01,-0.01,1.01,0.28,-0.14,-0.07,9,3,57
259,16549181,-168.4,0.0,-0.6,-0.2,317.8,37.956295,23.655691,0.19,0.0,0.0,1.2,0.01,-0.01,1.00,0.21,-0.21,-0.07,9,3,57
260,16549278,-168.4,0.0,-0.6,-0.2,317.9,37.956295,23.655691,0.19,0.0,0.0,1.2,0.01,-0.01,1.00,0.28,-0.21,-0.07,9,3,57
261,16549375,-168.4,0.0,-0.7,-0.4,317.9,37.956295,23.655691,0.19,0.0,0.0,1.2,0.01,-0.01,1.00,0.21,-0.14,0.00,9,3,57
262,16549473,-168.4,0.0,-0.8,-0.4,317.9,37.956295,23.655691,0.19,0.0,0.0,1.2,0.01,-0.01,1.01,0.21,-0.21,-0.07,9,3,57
263,16549570,-168.4,0.0,-0.8,-0.4,317.9,37.956295,23.655691,0.19,0.0,0.0,1.2,0.01,-0.01,1.01,0.14,-0.21,-0.07,9,3,57
264,16549667,-168.4,0.0,-0.8,-0.4,317.9,37.956295,23.655691,0.19,0.0,0.0,1.2,0.01,-0.01,1.01,0.21,-0.21,0.00,9,3,57
265,16549765,-168.4,0.0,-0.8,-0.4,317.9,37.956295,23.655691,0.19,0.0,0.0,1.2,0.01,-0.01,1.01,0.07,-0.21,0.00,9,3,57
266,16549862,-168.4,0.0,-0.9,-0.5,317.8,37.956295,23.655691,0.19,0.0,0.0,1.2,0.01,-0.01,1.01,0.14,-0.21,-0.07,9,3,57
267,16549960,-168.4,0.0,-0.9,-0.5,317.8,37.956295,23.655691,0.19,0.0,0.0,1.2,0.01,-0.01,1.01,0.21,-0.21,-0.07,9,3,57
268,16550057,-168.4,0.0,-0.9,-0.5,317.7,37.956295,23.655691,0.19,0.0,0.0,1.2,0.01,-0.01,1.00,0.07,-0.14,-0.07,9,3,57
269,16550154,-168.4,0.0,-0.9,-0.5,317.7,37.956295,23.655691,0.19,0.0,0.0,1.2,0.01,-0.01,1.00,0.21,-0.28,-0.07,9,3,57
270,16550252,-168.4,0.0,-0.9,-0.5,317.6,37.956295,23.655691,0.19,0.0,0.0,1.2,0.01,-0.01,1.00,0.21,-0.21,-0.07,9,3,57
271,16550349,-168.4,0.0,-0.8,-0.5,317.6,37.956295,23.655691,0.19,0.0,0.0,1.2,0.01,-0.01,1.01,0.14,-0.21,0.00,9,3,57
272,16550446,-168.4,0.0,-1.0,-0.7,317.4,37.956295,23.655691,0.19,0.0,0.0,1.2,0.01,-0.01,1.00,0.21,-0.21,-0.07,9,3,57
273,16550544,-168.4,0.0,-1.1,-0.7,317.3,37.956295,23.655691,0.19,0.0,0.0,1.2,0.01,-0.01,1.00,0.14,-0.28,0.00,9,3,57
274,16550641,-168.4,0.0,-1.0,-0.7,317.2,37.956295,23.655691,0.19,0.0,0.0,1.2,0.01,-0.01,1.00,0.21,-0.21,0.00,9,3,57
275,16550738,-168.4,0.0,-1.0,-0.7,317.0,37.956295,23.655691,0.19,0.0,0.0,1.2,0.01,-0.01,1.00,0.21,-0.21,-0.07,9,3,57
276,16550836,-168.4,0.0,-1.0,-0.7,316.9,37.956295,23.655691,0.19,0.0,0.0,1.2,0.01,-0.01,1.01,0.21,-0.14,-0.07,9,3,57
277,16550933,-168.4,0.0,-0.7,-0.3,317.0,37.956295,23.655691,0.19,0.0,0.0,1.2,0.01,-0.01,1.01,0.21,-0.14,0.00,9,3,57
278,16551031,-168.4,0.0,-0.6,-0.3,317.1,37.956295,23.655691,0.19,0.0,0.0,1.2,0.01,-0.01,1.01,0.21,-0.14,-0.07,9,3,57
279,16551128,-168.4,0.0,-0.6,-0.3,317.1,37.956295,23.655691,0.19,0.0,0.0,1.2,0.01,-0.01,1.00,0.28,-0.21,-0.07,9,3,57
280,16551225,-168.4,0.0,-0.6,-0.3,317.2,37.956295,23.655691,0.19,0.0,0.0,1.2,0.01,-0.01,1.00,0.21,-0.14,-0.07,9,3,57
281,16551323,-168.4,0.0,-0.7,-0.3,317.3,37.956295,23.655691,0.19,0.0,0.0,1.2,0.01,-0.01,1.00,0.14,-0.14,-0.14,9,3,57
282,16551420,-168.4,0.0,-0.7,-0.3,317.3,37.956295,23.655691,0.19,0.0,0.0,1.2,0.01,-0.01,1.01,0.21,-0.21,0.00,9,3,57
283,16551517,-168.4,0.0,-0.8,-0.4,317.3,37.956295,23.655691,0.19,0.0,0.0,1.2,0.01,-0.01,1.00,0.14,-0.14,0.00,9,3,57
284,16551615,-168.4,0.0,-0.7,-0.3,317.3,37.956295,23.655691,0.19,0.0,0.0,1.2,0.01,-0.01,1.00,0.21,-0.21,-0.07,9,3,57
285,16551712,-168.4,0.0,-0.7,-0.4,317.3,37.956295,23.655691,0.19,0.0,0.0,1.2,0.01,-0.01,1.00,0.21,-0.21,0.00,9,3,57
286,16551810,-168.4,0.0,-0.7,-0.4,317.4,37.956295,23.655691,0.19,0.0,0.0,1.2,0.01,-0.01,1.00,0.14,-0.21,-0.07,9,3,57
287,16551907,-168.4,0.0,-0.7,-0.3,317.4,37.956295,23.655691,0.19,0.0,0.0,1.2,0.01,-0.01,1.00,0.14,-0.14,-0.07,9,3,57
288,16552004,-168.4,0.0,-0.7,-0.3,317.5,37.956295,23.655691,0.19,0.0,0.0,1.2,0.01,-0.01,1.00,0.14,-0.28,-0.07,9,3,57
289,16552102,-168.4,0.0,-0.7,-0.3,317.5,37.956295,23.655691,0.19,0.0,0.0,1.2,0.01,-0.01,1.00,0.14,-0.21,0.00,9,3,57
290,16552199,-168.4,0.0,-0.7,-0.3,317.6,37.956295,23.655691,0.19,0.0,0.0,1.2,0.01,-0.01,1.00,0.21,-0.14,-0.07,9,3,57
291,16552296,-168.4,0.0,-0.7,-0.3,317.6,37.956295,23.655691,0.19,0.0,0.0,1.2,0.01,-0.01,1.00,0.14,-0.21,-0.14,9,3,57
292,16552394,-168.4,0.0,-0.8,-0.4,317.6,37.956295,23.655691,0.19,0.0,0.0,1.2,0.01,-0.01,1.01,0.14,-0.14,-0.07,9,3,57
293,16552491,-168.4,0.0,-0.9,-0.5,317.5,37.956295,23.655691,0.19,0.0,0.0,1.2,0.01,-0.01,1.00,0.21,-0.14,-0.07,9,3,57
294,16552588,-168.4,0.0,-0.9,-0.5,317.5,37.956295,23.655691,0.19,0.0,0.0,1.2,0.01,-0.01,1.00,0.14,-0.21,0.00,9,3,57
295,16552686,-168.4,0.0,-0.8,-0.5,317.4,37.956295,23.655691,0.19,0.0,0.0,1.2,0.01,-0.01,1.01,0.21,-0.14,-0.07,9,3,57
296,16552783,-168.4,0.0,-0.8,-0.4,317.4,37.956295,23.655691,0.19,0.0,0.0,1.2,0.01,-0.01,1.01,0.21,-0.14,-0.07,9,3,57
297,16552881,-168.4,0.0,-0.8,-0.4,317.4,37.956295,23.655691,0.19,0.0,0.0,1.2,0.01,-0.01,1.01,0.14,-0.21,-0.07,9,3,57
298,16552978,-168.4,0.0,-0.8,-0.3,317.4,37.956295,23.655691,0.19,0.0,0.0,1.2,0.01,-0.01,1.00,0.14,-0.21,-0.14,9,3,57
299,16553075,-168.4,0.0,-0.8,-0.4,317.4,37.956295,23.655691,0.19,0.0,0.0,1.2,0.01,-0.01,1.00,0.21,-0.28,-0.07,9,3,57
300,16553173,-168.4,0.0,-0.7,-0.4,317.5,37.956295,23.655691,0.19,0.0,0.0,1.2,0.01,-0.01,1.00,0.21,-0.21,-0.07,9,3,57
301,16553270,-168.4,0.0,-0.7,-0.4,317.5,37.956295,23.655691,0.19,0.0,0.0,1.2,0.01,-0.01,1.01,0.21,-0.21,-0.07,9,3,57
302,16553367,-168.4,0.0,-0.7,-0.3,317.5,37.956295,23.655691,0.19,0.0,0.0,1.2,0.01,-0.01,1.01,0.21,-0.21,-0.14,9,3,57
303,16553465,-168.4,0.0,-0.7,-0.3,317.6,37.956295,23.655691,0.19,0.0,0.0,1.2,0.01,-0.01,1.00,0.21,-0.21,-0.07,9,3,57
304,16553562,-168.4,0.0,-0.7,-0.3,317.7,37.956295,23.655691,0.19,0.0,0.0,1.2,0.01,-0.01,1.00,0.21,-0.28,0.00,9,3,57
305,16553660,-168.4,0.0,-0.7,-0.3,317.7,37.956295,23.655691,0.19,0.0,0.0,1.2,0.01,-0.01,1.00,0.14,-0.21,-0.14,9,3,57
306,16553757,-168.4,0.0,-0.7,-0.3,317.8,37.956295,23.655691,0.19,0.0,0.0,1.2,0.01,-0.01,1.01,0.21,-0.14,-0.07,9,3,57
307,16553854,-168.4,0.0,-0.8,-0.4,317.8,37.956295,23.655691,0.19,0.0,0.0,1.2,0.01,-0.01,1.00,0.14,-0.21,-0.07,9,3,57
308,16553952,-168.4,0.0,-0.8,-0.4,317.7,37.956295,23.655691,0.19,0.0,0.0,1.2,0.01,-0.01,1.01,0.21,-0.21,-0.14,9,3,57
309,16554049,-168.4,0.0,-0.8,-0.5,317.7,37.956295,23.655691,0.19,0.0,0.0,1.2,0.01,-0.01,1.00,0.14,-0.28,-0.14,9,3,57
310,16554146,-168.4,0.0,-0.8,-0.5,317.7,37.956295,23.655691,0.19,0.0,0.0,1.2,0.01,-0.01,1.00,0.14,-0.14,0.00,9,3,57
311,16554244,-168.4,0.0,-0.8,-0.4,317.7,37.956295,23.655691,0.19,0.0,0.0,1.2,0.01,-0.01,1.00,0.14,-0.21,-0.07,9,3,57
312,16554341,-168.4,0.0,-0.9,-0.5,317.6,37.956295,23.655691,0.19,0.0,0.0,1.2,0.01,-0.01,1.00,0.14,-0.21,-0.14,9,3,57
313,16554438,-168.4,0.0,-0.9,-0.5,317.5,37.956295,23.655691,0.19,0.0,0.0,1.2,0.01,-0.01,1.01,0.21,-0.14,-0.07,9,3,57
314,16554536,-168.4,0.0,-0.9,-0.5,317.5,37.956295,23.655691,0.19,0.0,0.0,1.2,0.01,-0.01,1.00,0.28,-0.21,0.00,9,3,57
315,16554633,-168.4,0.0,-0.9,-0.5,317.4,37.956295,23.655691,0.19,0.0,0.0,1.2,0.01,-0.01,1.00,0.14,-0.21,-0.07,9,3,57
316,16554731,-168.4,0.0,-0.9,-0.5,317.4,37.956295,23.655691,0.19,0.0,0.0,1.2,0.01,-0.01,1.00,0.14,-0.21,-0.07,9,3,57
317,16554828,-168.4,0.0,-0.8,-0.5,317.3,37.956295,23.655691,0.19,0.0,0.0,1.2,0.01,-0.01,1.00,0.21,-0.21,-0.07,9,3,57
318,16554925,-168.4,0.0,-0.8,-0.4,317.3,37.956295,23.655691,0.19,0.0,0.0,1.2,0.01,-0.01,1.00,0.14,-0.28,-0.07,9,3,57
319,16555023,-168.4,0.0,-0.8,-0.4,317.3,37.956295,23.655691,0.19,0.0,0.0,1.2,0.01,-0.01,1.00,0.21,-0.28,-0.07,9,3,57
320,16555120,-168.4,0.0,-0.8,-0.4,317.3,37.956295,23.655691,0.19,0.0,0.0,1.2,0.01,-0.01,1.00,0.14,-0.21,-0.07,9,3,57
321,16555217,-168.4,0.0,-0.7,-0.4,317.3,37.956295,23.655691,0.19,0.0,0.0,1.2,0.01,-0.01,1.00,0.14,-0.14,-0.07,9,3,57
322,16555315,-168.4,0.0,-0.8,-0.5,317.3,37.956295,23.655691,0.19,0.0,0.0,1.2,0.01,-0.01,1.00,0.21,-0.14,-0.07,9,3,57
323,16555412,-168.4,0.0,-0.9,-0.5,317.2,37.956295,23.655691,0.19,0.0,0.0,1.2,0.01,-0.01,1.00,0.21,-0.21,-0.07,9,3,57
324,16555510,-168.4,0.0,-0.9,-0.5,317.1,37.956295,23.655691,0.19,0.0,0.0,1.2,0.01,-0.01,1.00,0.14,-0.21,-0.07,9,3,57
325,16555607,-168.4,0.0,-0.9,-0.5,317.1,37.956295,23.655691,0.19,0.0,0.0,1.2,0.01,-0.01,1.00,0.07,-0.21,-0.07,9,3,57
326,16555704,-168.4,0.0,-0.9,-0.5,317.0,37.956295,23.655691,0.19,0.0,0.0,1.2,0.01,-0.01,1.00,0.14,-0.21,-0.07,9,3,57
327,16555802,-168.4,0.0,-0.9,-0.5,316.9,37.956295,23.655691,0.19,0.0,0.0,1.2,0.01,-0.01,1.00,0.07,-0.14,-0.07,9,3,57
328,16555899,-168.4,0.0,-0.7,-0.3,317.1,37.956295,23.655691,0.19,0.0,0.0,1.2,0.01,-0.02,1.01,0.14,-0.21,-0.14,9,3,57
329,16555996,-168.4,0.0,-0.7,-0.3,317.1,37.956295,23.655691,0.19,0.0,0.0,1.2,0.01,-0.01,1.01,0.07,-0.14,0.00,9,3,57
330,16556094,-168.4,0.0,-0.7,-0.3,317.2,37.956295,23.655691,0.19,0.0,0.0,1.2,0.01,-0.01,1.01,0.21,-0.21,-0.07,9,3,57
331,16556191,-168.4,0.0,-0.6,-0.3,317.3,37.956295,23.655691,0.19,0.0,0.0,1.2,0.01,-0.01,1.00,0.21,-0.21,-0.07,9,3,57
332,16556288,-168.4,0.0,-0.6,-0.3,317.4,37.956295,23.655691,0.19,0.0,0.0,1.2,0.01,-0.01,1.00,0.21,-0.21,-0.07,9,3,57
333,16556386,-168.4,0.0,-0.8,-0.5,317.3,37.956295,23.655691,0.19,0.0,0.0,1.2,0.01,-0.01,1.01,0.21,-0.21,-0.07,9,3,57
334,16556483,-168.4,0.0,-0.9,-0.5,317.2,37.956295,23.655691,0.19,0.0,0.0,1.2,0.01,-0.01,1.01,0.21,-0.21,-0.14,9,3,57
335,16556581,-168.4,0.0,-0.9,-0.5,317.2,37.956295,23.655691,0.19,0.0,0.0,1.2,0.01,-0.01,1.00,0.21,-0.21,-0.07,9,3,57
336,16556678,-168.4,0.0,-0.9,-0.5,317.1,37.956295,23.655691,0.19,0.0,0.0,1.2,0.01,-0.01,1.00,0.14,-0.21,-0.14,9,3,57
337,16556775,-168.4,0.0,-0.9,-0.5,317.1,37.956295,23.655691,0.19,0.0,0.0,1.2,0.01,-0.01,1.00,0.21,-0.28,-0.07,9,3,57
338,16556873,-168.4,0.0,-0.8,-0.4,317.1,37.956295,23.655691,0.19,0.0,0.0,1.2,0.01,-0.01,1.01,0.21,-0.21,-0.07,9,3,57
339,16556970,-168.4,0.0,-0.8,-0.4,317.1,37.956295,23.655691,0.19,0.0,0.0,1.2,0.01,-0.01,1.00,0.14,-0.28,-0.07,9,3,57
340,16557067,-168.4,0.0,-0.7,-0.4,317.1,37.956295,23.655691,0.19,0.0,0.0,1.2,0.01,-0.01,1.00,0.07,-0.28,0.00,9,3,57
341,16557165,-168.4,0.0,-0.7,-0.3,317.1,37.956295,23.655691,0.19,0.0,0.0,1.2,0.01,-0.01,1.00,0.14,-0.21,-0.07,9,3,57
342,16557262,-168.4,0.0,-0.7,-0.4,317.1,37.956295,23.655691,0.19,0.0,0.0,1.2,0.01,-0.01,1.01,0.14,-0.21,-0.07,9,3,57
343,16557359,-168.4,0.0,-0.9,-0.5,317.0,37.956295,23.655691,0.19,0.0,0.0,1.2,0.01,-0.01,1.01,0.21,-0.21,-0.07,9,3,57
344,16557457,-168.4,0.0,-0.9,-0.6,317.0,37.956295,23.655691,0.19,0.0,0.0,1.2,0.01,-0.01,1.00,0.21,-0.21,-0.07,9,3,57
345,16557554,-168.4,0.0,-0.9,-0.5,316.9,37.956295,23.655691,0.19,0.0,0.0,1.2,0.01,-0.01,1.00,0.14,-0.14,-0.07,9,3,57
346,16557652,-168.4,0.0,-0.9,-0.5,316.8,37.956295,23.655691,0.19,0.0,0.0,1.2,0.01,-0.01,1.00,0.07,-0.21,-0.07,9,3,57
347,16557749,-168.4,0.0,-0.9,-0.5,316.7,37.956295,23.655691,0.10,0.0,0.0,1.2,0.01,-0.01,1.00,0.14,-0.14,-0.07,9,3,57
348,16557846,-168.4,0.0,-0.7,-0.4,316.8,37.956295,23.655691,0.10,0.0,0.0,1.2,0.01,-0.01,1.01,0.14,-0.14,0.00,9,3,57
349,16557944,-168.4,0.0,-0.7,-0.3,316.8,37.956295,23.655691,0.10,0.0,0.0,1.2,0.01,-0.01,1.01,0.21,-0.14,0.00,9,3,57
350,16558041,-168.4,0.0,-0.7,-0.3,316.9,37.956295,23.655691,0.10,0.0,0.0,1.2,0.01,-0.01,1.00,0.21,-0.21,-0.07,9,3,57
351,16558138,-168.4,0.0,-0.7,-0.4,316.9,37.956295,23.655691,0.10,0.0,0.0,1.2,0.01,-0.01,1.00,0.14,-0.21,-0.07,9,3,57
352,16558236,-168.4,0.0,-0.7,-0.3,316.9,37.956295,23.655691,0.10,0.0,0.0,1.2,0.01,-0.01,1.00,0.07,-0.21,0.00,9,3,57
353,16558333,-168.4,0.0,-0.8,-0.4,316.9,37.956295,23.655691,0.10,0.0,0.0,1.2,0.01,-0.01,1.00,0.14,-0.14,-0.07,9,3,57
354,16558431,-168.4,0.0,-0.8,-0.4,316.9,37.956295,23.655691,0.10,0.0,0.0,1.2,0.01,-0.01,1.01,0.14,-0.14,-0.14,9,3,57
355,16558528,-168.4,0.0,-0.7,-0.4,316.9,37.956295,23.655691,0.10,0.0,0.0,1.2,0.01,-0.01,1.01,0.28,-0.21,-0.07,9,3,57
356,16558625,-168.4,0.0,-0.8,-0.4,316.9,37.956295,23.655691,0.10,0.0,0.0,1.2,0.01,-0.01,1.00,0.14,-0.14,0.00,9,3,57
357,16558723,-168.4,0.0,-0.8,-0.4,316.9,37.956295,23.655691,0.10,0.0,0.0,1.2,0.01,-0.01,1.00,0.21,-0.14,-0.07,9,3,57
358,16558820,-168.4,0.0,-0.7,-0.4,316.9,37.956295,23.655691,0.10,0.0,0.0,1.2,0.01,-0.01,1.00,0.14,-0.21,0.00,9,3,57
359,16558917,-168.4,0.0,-0.7,-0.3,317.0,37.956295,23.655689,0.10,0.0,0.0,1.2,0.01,-0.01,1.01,0.21,-0.28,0.00,9,3,58
360,16559015,-168.4,0.0,-0.8,-0.3,317.0,37.956295,23.655689,0.10,0.0,0.0,1.2,0.00,-0.01,1.01,0.21,-0.21,-0.07,9,3,58
361,16559112,-168.4,0.0,-0.7,-0.3,317.0,37.956295,23.655689,0.10,0.0,0.0,1.2,0.01,-0.01,1.01,0.21,-0.28,-0.07,9,3,58
362,16559209,-168.4,0.0,-0.7,-0.4,317.1,37.956295,23.655689,0.10,0.0,0.0,1.2,0.01,-0.01,1.00,0.21,-0.21,-0.07,9,3,58
363,16559307,-168.4,0.0,-0.8,-0.4,317.0,37.956295,23.655689,0.10,0.0,0.0,1.2,0.01,-0.01,1.00,0.21,-0.21,-0.07,9,3,58
364,16559404,-168.4,0.0,-0.8,-0.4,317.0,37.956295,23.655689,0.10,0.0,0.0,1.2,0.01,-0.01,1.00,0.14,-0.21,-0.07,9,3,58
365,16559502,-168.4,0.0,-0.8,-0.4,317.0,37.956295,23.655689,0.10,0.0,0.0,1.2,0.01,-0.01,1.01,0.14,-0.21,-0.07,9,3,58
366,16559599,-168.4,0.0,-0.8,-0.4,317.0,37.956295,23.655689,0.10,0.0,0.0,1.2,0.01,-0.01,1.01,0.14,-0.21,0.00,9,3,58
367,16559696,-168.4,0.0,-0.8,-0.5,317.0,37.956295,23.655689,0.10,0.0,0.0,1.2,0.01,-0.01,1.01,0.14,-0.14,-0.07,9,3,58
368,16559794,-168.4,0.0,-0.8,-0.4,317.0,37.956295,23.655689,0.10,0.0,0.0,1.2,0.01,-0.01,1.00,0.28,-0.21,-0.07,9,3,58
369,16559891,-168.4,0.0,-0.8,-0.4,317.0,37.956295,23.655689,0.10,0.0,0.0,1.2,0.01,-0.01,1.00,0.21,-0.14,-0.07,9,3,58
370,16559988,-168.4,0.0,-0.8,-0.4,317.0,37.956295,23.655689,0.10,0.0,0.0,1.2,0.01,-0.01,1.00,0.14,-0.21,0.00,9,3,58
371,16560086,-168.4,0.0,-0.8,-0.3,317.0,37.956295,23.655689,0.10,0.0,0.0,1.2,0.01,-0.01,1.01,0.14,-0.14,0.00,9,3,58
372,16560183,-168.4,0.0,-0.7,-0.3,317.0,37.956295,23.655689,0.10,0.0,0.0,1.2,0.00,-0.01,1.01,0.14,-0.14,0.00,9,3,58
373,16560281,-168.4,0.0,-0.7,-0.4,317.0,37.956295,23.655689,0.10,0.0,0.0,1.2,0.01,-0.01,1.00,0.07,-0.14,0.00,9,3,58
374,16560378,-168.4,0.0,-0.7,-0.3,317.1,37.956295,23.655689,0.10,0.0,0.0,1.2,0.01,-0.01,1.00,0.14,-0.21,-0.07,9,3,58
375,16560475,-168.4,0.0,-0.7,-0.3,317.2,37.956295,23.655689,0.10,0.0,0.0,1.2,0.01,-0.01,1.00,0.14,-0.14,-0.07,9,3,58
376,16560573,-168.4,0.0,-0.7,-0.3,317.3,37.956295,23.655689,0.10,0.0,0.0,1.2,0.01,-0.01,1.01,0.21,-0.21,-0.07,9,3,58
377,16560670,-168.4,0.0,-0.7,-0.3,317.4,37.956295,23.655689,0.10,0.0,0.0,1.2,0.01,-0.01,1.01,0.14,-0.21,-0.07,9,3,58
378,16560767,-168.4,0.0,-0.6,-0.2,317.4,37.956295,23.655689,0.10,0.0,0.0,1.2,0.01,-0.01,1.01,0.14,-0.14,-0.14,9,3,58
379,16560865,-168.4,0.0,-0.7,-0.3,317.4,37.956295,23.655689,0.10,0.0,0.0,1.2,0.01,-0.01,1.01,0.14,-0.07,-0.14,9,3,58
380,16560962,-168.4,0.0,-0.7,-0.4,317.5,37.956295,23.655689,0.10,0.0,0.0,1.2,0.01,-0.01,1.00,0.28,-0.14,-0.07,9,3,58
381,16561059,-168.4,0.0,-0.7,-0.3,317.5,37.956295,23.655689,0.10,0.0,0.0,1.2,0.01,-0.01,1.01,0.21,-0.21,0.07,9,3,58
382,16561157,-168.4,0.0,-0.8,-0.3,317.5,37.956295,23.655689,0.10,0.0,0.0,1.2,0.01,-0.01,1.01,0.21,-0.21,-0.07,9,3,58
383,16561254,-168.4,0.0,-0.7,-0.3,317.6,37.956295,23.655689,0.10,0.0,0.0,1.2,0.01,-0.01,1.01,0.21,-0.21,-0.07,9,3,58
384,16561352,-168.4,0.0,-0.9,-0.5,317.5,37.956295,23.655689,0.10,0.0,0.0,1.2,0.01,-0.01,1.01,0.21,-0.21,0.00,9,3,58
385,16561449,-168.4,0.0,-0.9,-0.5,317.4,37.956295,23.655689,0.10,0.0,0.0,1.2,0.01,-0.01,1.00,0.07,-0.28,0.00,9,3,58
386,16561546,-168.4,0.0,-0.9,-0.5,317.3,37.956295,23.655689,0.10,0.0,0.0,1.2,0.01,-0.01,1.00,0.14,-0.21,-0.07,9,3,58
387,16561644,-168.4,0.0,-0.9,-0.5,317.3,37.956295,23.655689,0.10,0.0,0.0,1.2,0.01,-0.01,1.01,0.21,-0.21,-0.07,9,3,58
388,16561741,-168.4,0.0,-0.9,-0.5,317.2,37.956295,23.655689,0.10,0.0,0.0,1.2,0.01,-0.01,1.01,0.14,-0.28,-0.07,9,3,58
389,16561838,-168.4,0.0,-0.7,-0.3,317.3,37.956295,23.655689,0.10,0.0,0.0,1.2,0.01,-0.01,1.01,0.14,-0.28,-0.07,9,3,58
390,16561936,-168.4,0.0,-0.6,-0.3,317.4,37.956295,23.655689,0.10,0.0,0.0,1.2,0.01,-0.01,1.00,0.28,-0.28,-0.07,9,3,58
391,16562033,-168.4,0.0,-0.7,-0.3,317.4,37.956295,23.655689,0.10,0.0,0.0,1.2,0.01,-0.01,1.00,0.28,-0.21,-0.07,9,3,58
392,16562131,-168.4,0.0,-0.7,-0.3,317.5,37.956295,23.655689,0.10,0.0,0.0,1.2,0.01,-0.01,1.00,0.21,-0.14,-0.07,9,3,58
393,16562228,-168.4,0.0,-0.7,-0.3,317.5,37.956295,23.655689,0.10,0.0,0.0,1.2,0.01,-0.01,1.00,0.21,-0.14,-0.07,9,3,58
394,16562325,-168.4,0.0,-0.8,-0.4,317.6,37.956295,23.655689,0.10,0.0,0.0,1.2,0.01,-0.01,1.01,0.21,-0.21,-0.07,9,3,58
395,16562423,-168.4,0.0,-0.8,-0.4,317.6,37.956295,23.655689,0.10,0.0,0.0,1.2,0.01,-0.01,1.00,0.21,-0.21,-0.07,9,3,58
396,16562520,-168.4,0.0,-0.8,-0.5,317.5,37.956295,23.655689,0.10,0.0,0.0,1.2,0.01,-0.01,1.00,0.28,-0.21,-0.14,9,3,58
397,16562617,-168.4,0.0,-0.7,-0.5,317.5,37.956295,23.655689,0.10,0.0,0.0,1.2,0.01,-0.01,1.00,0.14,-0.21,-0.14,9,3,58
398,16562715,-168.4,0.0,-0.7,-0.4,317.5,37.956295,23.655689,0.10,0.0,0.0,1.2,0.01,-0.01,1.00,0.14,-0.21,-0.07,9,3,58
399,16562812,-168.4,0.0,-0.8,-0.5,317.5,37.956295,23.655689,0.10,0.0,0.0,1.2,0.01,-0.01,1.00,0.21,-0.21,-0.14,9,3,58
400,16562909,-168.4,0.0,-0.8,-0.5,317.5,37.956295,23.655689,0.10,0.0,0.0,1.2,0.01,-0.01,1.01,0.14,-0.21,0.00,9,3,58
401,16563007,-168.4,0.0,-0.8,-0.4,317.4,37.956295,23.655689,0.10,0.0,0.0,1.2,0.01,-0.01,1.00,0.14,-0.21,0.00,9,3,58
402,16563104,-168.4,0.0,-0.9,-0.4,317.4,37.956295,23.655689,0.10,0.0,0.0,1.2,0.01,-0.01,1.01,0.21,-0.21,-0.07,9,3,58
403,16563202,-168.4,0.0,-0.8,-0.4,317.4,37.956295,23.655689,0.10,0.0,0.0,1.2,0.01,-0.01,1.01,0.35,-0.14,0.00,9,3,58
404,16563299,-168.4,0.0,-0.9,-0.5,317.3,37.956295,23.655689,0.10,0.0,0.0,1.2,0.01,-0.01,1.00,0.21,-0.21,-0.07,9,3,58
405,16563396,-168.4,0.0,-0.9,-0.5,317.3,37.956295,23.655689,0.10,0.0,0.0,1.2,0.01,-0.01,1.00,0.28,-0.28,-0.07,9,3,58
406,16563494,-168.4,0.0,-0.9,-0.5,317.2,37.956295,23.655689,0.10,0.0,0.0,1.2,0.01,-0.01,1.00,0.14,-0.21,-0.07,9,3,58
407,16563591,-168.4,0.0,-0.8,-0.5,317.2,37.956295,23.655689,0.10,0.0,0.0,1.2,0.01,-0.01,1.01,0.14,-0.21,-0.07,9,3,58
408,16563688,-168.4,0.0,-0.8,-0.4,317.1,37.956295,23.655689,0.10,0.0,0.0,1.2,0.01,-0.01,1.00,0.14,-0.28,0.00,9,3,58
409,16563786,-168.4,0.0,-0.8,-0.4,317.1,37.956295,23.655689,0.10,0.0,0.0,1.2,0.01,-0.01,1.00,0.14,-0.21,-0.07,9,3,58
410,16563883,-168.4,0.0,-0.8,-0.5,317.1,37.956295,23.655689,0.10,0.0,0.0,1.2,0.01,-0.01,1.00,0.21,-0.14,0.00,9,3,58
411,16563980,-168.4,0.0,-0.8,-0.5,317.1,37.956295,23.655689,0.10,0.0,0.0,1.2,0.01,-0.01,1.00,0.07,-0.21,-0.07,9,3,58
412,16564078,-168.4,0.0,-0.8,-0.4,317.1,37.956295,23.655689,0.10,0.0,0.0,1.2,0.01,-0.01,1.00,0.21,-0.21,-0.07,9,3,58
413,16564175,-168.4,0.0,-0.8,-0.4,317.1,37.956295,23.655689,0.10,0.0,0.0,1.2,0.01,-0.01,1.01,0.07,-0.21,-0.07,9,3,58
414,16564273,-168.4,0.0,-0.9,-0.4,317.0,37.956295,23.655689,0.10,0.0,0.0,1.2,0.00,-0.01,1.01,0.21,-0.21,-0.07,9,3,58
415,16564370,-168.4,0.0,-0.9,-0.5,316.9,37.956295,23.655689,0.10,0.0,0.0,1.2,0.01,-0.01,1.00,0.28,-0.21,-0.07,9,3,58
416,16564467,-168.4,0.0,-0.9,-0.6,316.9,37.956295,23.655689,0.10,0.0,0.0,1.2,0.01,-0.01,1.00,0.14,-0.14,-0.07,9,3,58
417,16564565,-168.4,0.0,-0.9,-0.6,316.8,37.956295,23.655689,0.10,0.0,0.0,1.2,0.01,-0.01,1.00,0.14,-0.21,-0.14,9,3,58
418,16564662,-168.4,0.0,-0.9,-0.6,316.7,37.956295,23.655689,0.10,0.0,0.0,1.2,0.01,-0.01,1.01,0.14,-0.14,-0.07,9,3,58
419,16564759,-168.4,0.0,-0.9,-0.5,316.7,37.956295,23.655689,0.10,0.0,0.0,1.2,0.01,-0.01,1.01,0.14,-0.21,-0.07,9,3,58
420,16564857,-168.4,0.0,-0.6,-0.2,316.8,37.956295,23.655689,0.10,0.0,0.0,1.2,0.01,-0.01,1.00,0.21,-0.14,-0.07,9,3,58
421,16564954,-168.4,0.0,-0.6,-0.1,317.0,37.956295,23.655689,0.10,0.0,0.0,1.2,0.01,-0.01,1.01,0.14,-0.21,0.00,9,3,58
422,16565052,-168.4,0.0,-0.6,-0.2,317.1,37.956295,23.655689,0.10,0.0,0.0,1.2,0.01,-0.01,1.00,0.21,-0.21,0.00,9,3,58
423,16565149,-168.4,0.0,-0.6,-0.2,317.2,37.956295,23.655689,0.10,0.0,0.0,1.2,0.01,-0.01,1.00,0.14,-0.21,-0.07,9,3,58
424,16565246,-168.4,0.0,-0.6,-0.3,317.3,37.956295,23.655689,0.10,0.0,0.0,1.2,0.01,-0.01,1.00,0.14,-0.21,-0.07,9,3,58
425,16565344,-168.4,0.0,-0.9,-0.5,317.2,37.956295,23.655689,0.10,0.0,0.0,1.2,0.01,-0.01,1.00,0.21,-0.14,-0.07,9,3,58
426,16565441,-168.4,0.0,-0.9,-0.6,317.1,37.956295,23.655689,0.10,0.0,0.0,1.2,0.01,-0.01,1.00,0.07,-0.21,0.00,9,3,58
427,16565538,-168.4,0.0,-0.9,-0.6,317.0,37.956295,23.655689,0.10,0.0,0.0,1.2,0.01,-0.01,1.00,0.21,-0.21,-0.07,9,3,58
428,16565636,-168.4,0.0,-1.0,-0.6,316.9,37.956295,23.655689,0.10,0.0,0.0,1.2,0.01,-0.02,1.00,0.21,-0.21,0.00,9,3,58
429,16565733,-168.4,0.0,-0.9,-0.6,316.8,37.956295,23.655689,0.10,0.0,0.0,1.2,0.01,-0.01,1.00,0.14,-0.28,0.00,9,3,58
430,16565830,-168.4,0.0,-0.8,-0.4,316.9,37.956295,23.655689,0.10,0.0,0.0,1.2,0.01,-0.01,1.01,0.28,-0.14,-0.07,9,3,58
431,16565928,-168.4,0.0,-0.7,-0.4,316.8,37.956295,23.655689,0.10,0.0,0.0,1.2,0.01,-0.01,1.01,0.21,-0.21,-0.14,9,3,58
432,16566025,-168.4,0.0,-0.8,-0.4,316.8,37.956295,23.655689,0.10,0.0,0.0,1.2,0.01,-0.01,1.00,0.14,-0.28,-0.14,9,3,58
433,16566123,-168.4,0.0,-0.8,-0.4,316.8,37.956295,23.655689,0.10,0.0,0.0,1.2,0.01,-0.01,1.00,0.21,-0.21,-0.07,9,3,58
434,16566220,-168.4,0.0,-0.8,-0.4,316.9,37.956295,23.655689,0.10,0.0,0.0,1.2,0.01,-0.01,1.00,0.14,-0.21,0.00,9,3,58
435,16566317,-168.4,0.0,-1.0,-0.6,316.7,37.956295,23.655689,0.10,0.0,0.0,1.2,0.01,-0.01,1.00,0.14,-0.14,-0.07,9,3,58
436,16566415,-168.4,0.0,-1.0,-0.7,316.6,37.956295,23.655689,0.10,0.0,0.0,1.2,0.01,-0.01,1.00,0.21,-0.28,-0.07,9,3,58
437,16566512,-168.4,0.0,-1.0,-0.6,316.5,37.956295,23.655689,0.10,0.0,0.0,1.2,0.01,-0.01,1.00,0.21,-0.14,-0.07,9,3,58
438,16566609,-168.4,0.0,-1.0,-0.6,316.4,37.956295,23.655689,0.10,0.0,0.0,1.2,0.01,-0.01,1.00,0.14,-0.14,-0.14,9,3,58
439,16566707,-168.4,0.0,-1.0,-0.7,316.3,37.956295,23.655689,0.10,0.0,0.0,1.2,0.01,-0.01,1.01,0.21,-0.21,-0.07,9,3,58
440,16566804,-168.4,0.0,-0.8,-0.6,316.2,37.956295,23.655689,0.10,0.0,0.0,1.2,0.01,-0.01,1.00,0.14,-0.21,0.00,9,3,58
441,16566902,-168.4,0.0,-0.9,-0.5,316.2,37.956295,23.655689,0.10,0.0,0.0,1.2,0.01,-0.01,1.01,0.21,-0.14,-0.07,9,3,58
442,16566999,-168.4,0.0,-0.9,-0.5,316.2,37.956295,23.655689,0.10,0.0,0.0,1.2,0.01,-0.01,1.00,0.07,-0.21,-0.07,9,3,58
443,16567096,-168.4,0.0,-0.9,-0.4,316.1,37.956295,23.655689,0.10,0.0,0.0,1.2,0.01,-0.01,1.00,0.14,-0.14,-0.07,9,3,58
444,16567194,-168.4,0.0,-0.8,-0.4,316.1,37.956295,23.655689,0.10,0.0,0.0,1.2,0.00,-0.01,1.00,0.14,-0.21,-0.07,9,3,58
445,16567291,-168.4,0.0,-0.7,-0.3,316.1,37.956295,23.655689,0.10,0.0,0.0,1.2,0.01,-0.01,1.01,0.14,-0.21,-0.07,9,3,58
446,16567388,-168.4,0.0,-0.6,-0.2,316.3,37.956295,23.655689,0.10,0.0,0.0,1.2,0.01,-0.01,1.01,0.14,-0.21,-0.07,9,3,58
447,16567486,-168.4,0.0,-0.6,-0.2,316.4,37.956295,23.655689,0.10,0.0,0.0,1.2,0.01,-0.01,1.01,0.21,-0.28,-0.07,9,3,58
448,16567583,-168.4,0.0,-0.5,-0.2,316.5,37.956295,23.655689,0.10,0.0,0.0,1.2,0.01,-0.01,1.02,0.21,-0.07,0.00,9,3,58
449,16567680,-168.4,0.0,-0.6,-0.2,316.6,37.956295,23.655689,0.08,0.0,0.0,1.2,0.01,-0.01,1.00,0.35,0.00,0.00,9,3,58
450,16567778,-168.4,0.0,-0.7,-0.3,316.6,37.956295,23.655689,0.08,0.0,0.0,1.2,0.01,-0.01,1.01,0.28,-0.07,-0.07,9,3,58
451,16567875,-168.4,0.0,-0.8,-0.4,316.7,37.956295,23.655689,0.08,0.0,0.0,1.2,0.01,-0.02,1.00,0.14,-0.21,0.00,9,3,58
452,16567973,-168.4,0.0,-0.8,-0.4,316.7,37.956295,23.655689,0.08,0.0,0.0,1.2,0.01,-0.01,1.00,0.21,-0.21,0.00,9,3,58
453,16568070,-168.4,0.0,-0.8,-0.3,316.7,37.956295,23.655689,0.08,0.0,0.0,1.2,0.01,-0.01,1.01,0.28,-0.14,-0.14,9,3,58
454,16568167,-168.4,0.0,-0.7,-0.4,316.7,37.956295,23.655689,0.08,0.0,0.0,1.2,0.01,-0.01,1.00,0.28,-0.21,0.00,9,3,58
455,16568265,-168.4,0.0,-0.7,-0.4,316.7,37.956295,23.655689,0.08,0.0,0.0,1.2,0.01,-0.01,1.00,0.21,-0.14,-0.07,9,3,58
456,16568362,-168.4,0.0,-0.7,-0.3,316.7,37.956295,23.655689,0.08,0.0,0.0,1.2,0.01,-0.01,1.00,0.14,-0.14,0.00,9,3,58
457,16568459,-168.4,0.0,-0.7,-0.4,316.7,37.956295,23.655689,0.08,0.0,0.0,1.2,0.01,-0.01,1.01,0.07,-0.14,-0.14,9,3,58
458,16568557,-168.4,0.0,-0.7,-0.4,316.8,37.956295,23.655689,0.08,0.0,0.0,1.2,0.01,-0.01,1.00,0.14,-0.21,-0.07,9,3,58
459,16568654,-168.4,0.0,-0.8,-0.3,316.8,37.956295,23.655689,0.08,0.0,0.0,1.2,0.01,-0.02,1.00,0.14,-0.21,-0.07,9,3,58
460,16568752,-168.4,0.0,-0.8,-0.4,316.8,37.956295,23.655689,0.08,0.0,0.0,1.2,0.01,-0.01,1.01,0.28,-0.07,0.00,9,3,58
461,16568849,-168.4,0.0,-0.8,-0.4,316.7,37.956295,23.655689,0.08,0.0,0.0,1.2,0.01,-0.01,1.01,0.14,-0.14,-0.07,9,3,58
462,16568946,-168.4,0.0,-0.8,-0.4,316.7,37.956295,23.655691,0.08,0.0,0.0,1.2,0.01,-0.01,1.01,0.21,-0.07,-0.14,9,3,59
463,16569044,-168.4,0.0,-0.8,-0.5,316.6,37.956295,23.655691,0.08,0.0,0.0,1.2,0.01,-0.01,1.00,0.14,-0.14,-0.14,9,3,59
464,16569141,-168.4,0.0,-0.8,-0.4,316.6,37.956295,23.655691,0.08,0.0,0.0,1.2,0.01,-0.01,1.00,0.14,-0.21,-0.07,9,3,59
465,16569238,-168.4,0.0,-0.7,-0.3,316.7,37.956295,23.655691,0.08,0.0,0.0,1.2,0.01,-0.01,1.00,0.21,-0.28,0.00,9,3,59
466,16569336,-168.4,0.0,-0.6,-0.2,316.8,37.956295,23.655691,0.08,0.0,0.0,1.2,0.01,-0.01,1.00,0.21,-0.14,-0.07,9,3,59
467,16569433,-168.4,0.0,-0.6,-0.3,316.8,37.956295,23.655691,0.08,0.0,0.0,1.2,0.01,-0.01,1.00,0.14,-0.21,-0.07,9,3,59
468,16569530,-168.4,0.0,-0.6,-0.3,316.9,37.956295,23.655691,0.08,0.0,0.0,1.2,0.01,-0.01,1.00,0.28,-0.14,-0.07,9,3,59
469,16569628,-168.4,0.0,-0.7,-0.3,317.0,37.956295,23.655691,0.08,0.0,0.0,1.2,0.01,-0.01,1.00,0.42,0.07,-0.07,9,3,59
470,16569725,-168.4,0.0,-0.7,-0.3,317.1,37.956295,23.655691,0.08,0.0,0.0,1.2,0.01,-0.01,1.01,0.35,0.00,-0.07,9,3,59
471,16569823,-168.4,0.0,-0.8,-0.4,317.1,37.956295,23.655691,0.08,0.0,0.0,1.2,0.01,-0.01,1.01,0.14,-0.07,0.00,9,3,59
472,16569920,-168.4,0.0,-0.8,-0.4,317.0,37.956295,23.655691,0.08,0.0,0.0,1.2,0.01,-0.01,1.01,0.21,-0.07,-0.07,9,3,59
473,16570017,-168.4,0.0,-0.8,-0.4,317.0,37.956295,23.655691,0.08,0.0,0.0,1.2,0.01,-0.01,1.00,0.28,-0.14,-0.07,9,3,59
474,16570115,-168.4,0.0,-0.8,-0.4,317.0,37.956295,23.655691,0.08,0.0,0.0,1.2,0.01,-0.01,1.01,0.28,-0.14,-0.07,9,3,59
475,16570212,-168.4,0.0,-0.8,-0.4,317.0,37.956295,23.655691,0.08,0.0,0.0,1.2,0.01,-0.01,1.00,0.14,-0.21,0.00,9,3,59
476,16570309,-168.4,0.0,-0.6,-0.2,317.1,37.956295,23.655691,0.08,0.0,0.0,1.2,0.01,-0.01,1.01,0.28,-0.21,-0.07,9,3,59
477,16570407,-168.4,0.0,-0.5,-0.2,317.3,37.956295,23.655691,0.08,0.0,0.0,1.2,0.01,-0.01,1.01,0.28,-0.14,-0.07,9,3,59
478,16570504,-168.4,0.0,-0.5,-0.2,317.5,37.956295,23.655691,0.08,0.0,0.0,1.2,0.01,-0.01,1.00,0.21,-0.21,-0.07,9,3,59
479,16570601,-168.4,0.0,-0.5,-0.2,317.6,37.956295,23.655691,0.08,0.0,0.0,1.2,0.01,-0.01,1.00,0.28,-0.21,-0.07,9,3,59
480,16570699,-168.4,0.0,-0.6,-0.2,317.7,37.956295,23.655691,0.08,0.0,0.0,1.2,0.01,-0.01,1.00,0.21,-0.21,-0.07,9,3,59
481,16570796,-168.4,0.0,-0.8,-0.4,317.7,37.956295,23.655691,0.08,0.0,0.0,1.2,0.01,-0.01,1.00,0.21,-0.14,-0.14,9,3,59
482,16570894,-168.4,0.0,-0.8,-0.4,317.7,37.956295,23.655691,0.08,0.0,0.0,1.2,0.01,-0.01,1.00,0.07,-0.14,-0.07,9,3,59
483,16570991,-168.4,0.0,-0.9,-0.5,317.6,37.956295,23.655691,0.08,0.0,0.0,1.2,0.01,-0.01,1.00,0.14,-0.21,0.00,9,3,59
484,16571088,-168.4,0.0,-0.8,-0.4,317.6,37.956295,23.655691,0.08,0.0,0.0,1.2,0.01,-0.01,1.00,0.14,-0.14,-0.07,9,3,59
485,16571186,-168.4,0.0,-0.8,-0.5,317.6,37.956295,23.655691,0.08,0.0,0.0,1.2,0.01,-0.01,1.00,0.14,-0.21,-0.07,9,3,59
486,16571283,-168.4,0.0,-0.8,-0.5,317.6,37.956295,23.655691,0.08,0.0,0.0,1.2,0.01,-0.01,1.01,0.14,-0.21,-0.14,9,3,59
487,16571380,-168.4,0.0,-0.8,-0.5,317.5,37.956295,23.655691,0.08,0.0,0.0,1.2,0.01,-0.01,1.01,0.14,-0.14,-0.14,9,3,59
488,16571478,-168.4,0.0,-0.8,-0.5,317.5,37.956295,23.655691,0.08,0.0,0.0,1.2,0.01,-0.01,1.01,0.14,-0.14,-0.07,9,3,59
489,16571575,-168.4,0.0,-0.9,-0.4,317.4,37.956295,23.655691,0.08,0.0,0.0,1.2,0.01,-0.01,1.00,0.21,-0.21,-0.07,9,3,59
490,16571673,-168.4,0.0,-0.9,-0.5,317.4,37.956295,23.655691,0.08,0.0,0.0,1.2,0.01,-0.01,1.01,0.07,-0.14,0.00,9,3,59
491,16571770,-168.4,0.0,-0.8,-0.3,317.5,37.956295,23.655691,0.08,0.0,0.0,1.2,0.01,-0.02,1.01,0.28,0.00,-0.07,9,3,59
492,16571867,-168.4,0.0,-0.7,-0.3,317.5,37.956295,23.655691,0.08,0.0,0.0,1.2,0.01,-0.01,1.01,0.14,-0.14,-0.07,9,3,59
493,16571965,-168.4,0.0,-0.7,-0.3,317.5,37.956295,23.655691,0.08,0.0,0.0,1.2,0.01,-0.01,1.01,0.21,-0.21,0.00,9,3,59
494,16572062,-168.4,0.0,-0.7,-0.3,317.6,37.956295,23.655691,0.08,0.0,0.0,1.2,0.01,-0.01,1.01,0.21,-0.14,-0.07,9,3,59
495,16572159,-168.4,0.0,-0.7,-0.3,317.6,37.956295,23.655691,0.08,0.0,0.0,1.2,0.01,-0.01,1.00,0.28,-0.21,-0.07,9,3,59
496,16572257,-168.4,0.0,-0.7,-0.3,317.6,37.956295,23.655691,0.08,0.0,0.0,1.2,0.01,-0.01,1.00,0.21,-0.28,-0.07,9,3,59
497,16572354,-168.4,0.0,-0.7,-0.3,317.7,37.956295,23.655691,0.08,0.0,0.0,1.2,0.01,-0.01,1.00,0.14,-0.21,-0.07,9,3,59
498,16572451,-168.4,0.0,-0.7,-0.3,317.7,37.956295,23.655691,0.08,0.0,0.0,1.2,0.01,-0.01,1.01,0.21,-0.14,-0.07,9,3,59
499,16572549,-168.4,0.0,-0.7,-0.4,317.7,37.956295,23.655691,0.08,0.0,0.0,1.2,0.01,-0.01,1.01,0.21,-0.14,-0.07,9,3,59
500,16572646,-168.4,0.0,-0.7,-0.4,317.8,37.956295,23.655691,0.08,0.0,0.0,1.2,0.01,-0.01,1.01,0.14,-0.14,-0.14,9,3,59
501,16572744,-168.4,0.0,-0.8,-0.5,317.7,37.956295,23.655691,0.08,0.0,0.0,1.2,0.01,-0.01,1.01,0.14,-0.21,-0.07,9,3,59
502,16572841,-168.4,0.0,-0.9,-0.5,317.6,37.956295,23.655691,0.08,0.0,0.0,1.2,0.01,-0.01,1.00,0.21,-0.21,-0.07,9,3,59
503,16572938,-168.4,0.0,-0.9,-0.5,317.6,37.956295,23.655691,0.08,0.0,0.0,1.2,0.01,-0.01,1.00,0.14,-0.21,-0.07,9,3,59
504,16573036,-168.4,0.0,-1.0,-0.5,317.5,37.956295,23.655691,0.08,0.0,0.0,1.2,0.01,-0.02,1.00,0.14,-0.28,-0.07,9,3,59
505,16573133,-168.4,0.0,-0.9,-0.5,317.5,37.956295,23.655691,0.08,0.0,0.0,1.2,0.01,-0.01,1.00,0.21,-0.21,-0.07,9,3,59
506,16573231,-168.4,0.0,-0.9,-0.5,317.4,37.956295,23.655691,0.08,0.0,0.0,1.2,0.01,-0.01,1.00,0.14,-0.21,-0.07,9,3,59
507,16573328,-168.4,0.0,-0.9,-0.5,317.4,37.956295,23.655691,0.08,0.0,0.0,1.2,0.01,-0.01,1.00,0.07,-0.21,0.00,9,3,59
508,16573425,-168.4,0.0,-0.8,-0.5,317.3,37.956295,23.655691,0.08,0.0,0.0,1.2,0.01,-0.01,1.00,0.07,-0.14,-0.07,9,3,59
509,16573523,-168.4,0.0,-0.8,-0.5,317.3,37.956295,23.655691,0.08,0.0,0.0,1.2,0.01,-0.01,1.00,0.14,-0.14,-0.07,9,3,59
510,16573620,-168.4,0.0,-0.8,-0.5,317.3,37.956295,23.655691,0.08,0.0,0.0,1.2,0.01,-0.01,1.00,0.07,-0.07,-0.14,9,3,59
511,16573717,-168.4,0.0,-0.9,-0.5,317.2,37.956295,23.655691,0.08,0.0,0.0,1.2,0.01,-0.01,1.01,0.00,-0.14,-0.14,9,3,59
512,16573815,-168.4,0.0,-0.9,-0.5,317.1,37.956295,23.655691,0.08,0.0,0.0,1.2,0.01,-0.01,1.01,0.07,-0.21,0.00,9,3,59
