count,timestamp,vane,wing,roll,pitch,yaw,lat,lon,speed,drag,lift,thrust,acc_x,acc_y,acc_z,gyro_x,gyro_y,gyro_z,hours,min,sec
0,1413854,-170.7,0.0,-1.2,-0.0,337.4,0.000000,0.000000,0.00,0.0,0.0,1.2,-0.00,-0.02,1.00,-0.09,0.72,-0.56,55,67,247
1,1413952,-170.7,0.0,-1.3,-0.0,337.3,0.000000,0.000000,0.00,0.0,0.0,1.2,-0.00,-0.02,1.00,-0.09,0.72,-0.56,55,67,247
2,1414049,-170.7,0.0,-1.3,-0.0,337.2,0.000000,0.000000,0.00,0.0,0.0,1.2,-0.00,-0.02,1.00,-0.09,0.72,-0.56,55,67,247
3,1414146,-170.7,0.0,-1.3,-0.0,337.2,0.000000,0.000000,0.00,0.0,0.0,1.2,0.00,-0.02,1.00,-0.09,0.79,-0.63,55,67,247
4,1414244,-170.7,0.0,-1.3,-0.1,337.1,0.000000,0.000000,0.00,0.0,0.0,1.2,0.00,-0.02,1.00,-0.16,0.72,-0.56,55,67,247
5,1414341,-170.7,0.0,-1.2,-0.0,337.1,0.000000,0.000000,0.00,0.0,0.0,1.2,-0.00,-0.02,1.00,-0.09,0.72,-0.56,55,67,247
6,1414438,-170.7,0.0,-1.2,0.1,337.1,0.000000,0.000000,0.00,0.0,0.0,1.2,-0.00,-0.02,1.00,-0.16,0.79,-0.63,55,67,247
7,1414536,-170.7,0.0,-1.2,0.0,337.1,0.000000,0.000000,0.00,0.0,0.0,1.2,0.00,-0.02,1.00,-0.09,0.72,-0.56,55,67,247
8,1414633,-170.7,0.0,-1.2,-0.0,337.1,0.000000,0.000000,0.00,0.0,0.0,1.2,0.00,-0.02,1.00,-0.09,0.72,-0.49,55,67,247
9,1414730,-170.7,0.0,-1.2,0.0,337.1,0.000000,0.000000,0.00,0.0,0.0,1.2,-0.00,-0.02,1.00,-0.09,0.72,-0.56,55,67,247
10,1414828,-170.7,0.0,-1.2,0.1,337.1,0.000000,0.000000,0.00,0.0,0.0,1.2,-0.00,-0.02,1.00,-0.09,0.65,-0.49,55,67,247
11,1414925,-170.7,0.0,-1.2,0.0,337.1,0.000000,0.000000,0.00,0.0,0.0,1.2,-0.00,-0.02,1.00,-0.16,0.72,-0.63,55,67,247
12,1415022,-170.7,0.0,-1.2,0.1,337.1,0.000000,0.000000,0.00,0.0,0.0,1.2,-0.00,-0.02,1.00,-0.16,0.72,-0.49,55,67,247
13,1415120,-170.7,0.0,-1.2,0.0,337.1,0.000000,0.000000,0.00,0.0,0.0,1.2,-0.00,-0.02,1.00,-0.09,0.72,-0.56,55,67,247
14,1415217,-170.7,0.0,-1.2,0.0,337.1,0.000000,0.000000,0.00,0.0,0.0,1.2,-0.00,-0.02,1.00,-0.09,0.79,-0.56,55,67,247
15,1415314,-170.7,0.0,-1.2,0.0,337.0,0.000000,0.000000,0.00,0.0,0.0,1.2,-0.00,-0.02,1.00,-0.16,0.72,-0.56,55,67,247
16,1415412,-170.7,0.0,-1.3,0.0,336.9,0.000000,0.000000,0.00,0.0,0.0,1.2,-0.00,-0.02,1.00,-0.02,0.72,-0.56,55,67,247
17,1415509,-170.7,0.0,-1.3,0.0,336.8,0.000000,0.000000,0.00,0.0,0.0,1.2,-0.00,-0.02,1.00,-0.02,0.72,-0.56,55,67,247
18,1415606,-170.7,0.0,-1.3,-0.0,336.6,0.000000,0.000000,0.00,0.0,0.0,1.2,-0.00,-0.02,1.00,-0.09,0.72,-0.56,55,67,247
19,1415704,-170.7,0.0,-1.3,-0.0,336.5,0.000000,0.000000,0.00,0.0,0.0,1.2,0.00,-0.02,1.00,-0.09,0.65,-0.49,55,67,247
20,1415801,-170.7,0.0,-1.3,-0.0,336.5,0.000000,0.000000,0.00,0.0,0.0,1.2,-0.00,-0.02,1.00,-0.09,0.65,-0.56,55,67,247
21,1415898,-170.7,0.0,-1.0,0.2,336.7,0.000000,0.000000,0.00,0.0,0.0,1.2,-0.00,-0.02,1.00,-0.02,0.72,-0.56,55,67,247
22,1415996,-170.7,0.0,-1.0,0.1,336.9,0.000000,0.000000,0.00,0.0,0.0,1.2,-0.00,-0.02,1.00,-0.09,0.72,-0.56,55,67,247
23,1416093,-170.7,0.0,-1.0,0.1,337.0,0.000000,0.000000,0.00,0.0,0.0,1.2,-0.00,-0.02,1.00,-0.09,0.72,-0.56,55,67,247
24,1416190,-170.7,0.0,-1.0,0.1,337.1,0.000000,0.000000,0.00,0.0,0.0,1.2,-0.00,-0.02,1.00,-0.16,0.72,-0.56,55,67,247
25,1416288,-170.7,0.0,-1.1,0.1,337.3,0.000000,0.000000,0.00,0.0,0.0,1.2,-0.00,-0.02,1.00,-0.09,0.79,-0.56,55,67,247
26,1416385,-170.7,0.0,-1.2,0.0,337.3,0.000000,0.000000,0.00,0.0,0.0,1.2,0.00,-0.02,1.00,-0.09,0.72,-0.56,55,67,247
27,1416482,-170.7,0.0,-1.1,0.0,337.3,0.000000,0.000000,0.00,0.0,0.0,1.2,-0.00,-0.02,1.00,-0.02,0.72,-0.56,55,67,247
28,1416580,-170.7,0.0,-1.2,0.0,337.3,0.000000,0.000000,0.00,0.0,0.0,1.2,-0.00,-0.02,1.00,-0.09,0.72,-0.56,55,67,247
29,1416677,-170.7,0.0,-1.1,0.1,337.4,0.000000,0.000000,0.00,0.0,0.0,1.2,-0.00,-0.02,1.00,-0.16,0.65,-0.63,55,67,247
30,1416774,-170.7,0.0,-1.2,0.0,337.4,0.000000,0.000000,0.00,0.0,0.0,1.2,-0.00,-0.02,1.00,-0.16,0.72,-0.56,55,67,247
31,1416872,-170.7,0.0,-1.1,0.0,337.4,0.000000,0.000000,0.00,0.0,0.0,1.2,0.00,-0.02,1.00,-0.16,0.72,-0.70,55,67,247
32,1416969,-170.7,0.0,-1.1,0.1,337.4,0.000000,0.000000,0.00,0.0,0.0,1.2,-0.00,-0.02,1.00,-0.09,0.72,-0.63,55,67,247
33,1417066,-170.7,0.0,-1.2,0.1,337.5,0.000000,0.000000,0.00,0.0,0.0,1.2,-0.00,-0.02,1.00,-0.16,0.72,-0.56,55,67,247
34,1417164,-170.7,0.0,-1.1,0.1,337.5,0.000000,0.000000,0.00,0.0,0.0,1.2,-0.00,-0.02,1.00,-0.02,0.72,-0.56,55,67,247
35,1417261,-170.7,0.0,-1.2,0.0,337.5,0.000000,0.000000,0.00,0.0,0.0,1.2,-0.00,-0.02,1.00,-0.09,0.79,-0.56,55,67,247
36,1417358,-170.7,0.0,-1.2,0.0,337.5,0.000000,0.000000,0.00,0.0,0.0,1.2,-0.00,-0.02,1.00,-0.09,0.72,-0.56,55,67,247
37,1417456,-170.7,0.0,-1.3,0.0,337.4,0.000000,0.000000,0.00,0.0,0.0,1.2,-0.00,-0.02,1.00,-0.16,0.72,-0.56,55,67,247
38,1417553,-170.7,0.0,-1.3,-0.0,337.3,0.000000,0.000000,0.00,0.0,0.0,1.2,-0.00,-0.02,1.00,-0.16,0.72,-0.49,55,67,247
39,1417650,-170.7,0.0,-1.3,-0.0,337.3,0.000000,0.000000,0.00,0.0,0.0,1.2,-0.00,-0.02,1.00,-0.09,0.72,-0.63,55,67,247
40,1417748,-170.7,0.0,-1.2,0.0,337.2,0.000000,0.000000,0.00,0.0,0.0,1.2,-0.00,-0.02,1.00,-0.16,0.79,-0.56,55,67,247
41,1417845,-170.7,0.0,-1.1,0.1,337.3,0.000000,0.000000,0.00,0.0,0.0,1.2,-0.00,-0.02,1.00,-0.09,0.72,-0.63,55,67,247
42,1417942,-170.7,0.0,-1.1,0.1,337.3,0.000000,0.000000,0.00,0.0,0.0,1.2,-0.00,-0.02,1.00,-0.09,0.65,-0.49,55,67,247
43,1418040,-170.7,0.0,-1.1,0.1,337.4,0.000000,0.000000,0.00,0.0,0.0,1.2,-0.00,-0.02,1.00,-0.09,0.65,-0.56,55,67,247
44,1418137,-170.7,0.0,-1.1,0.1,337.5,0.000000,0.000000,0.00,0.0,0.0,1.2,-0.00,-0.02,1.00,-0.16,0.72,-0.49,55,67,247
45,1418234,-170.7,0.0,-1.1,0.1,337.5,0.000000,0.000000,0.00,0.0,0.0,1.2,-0.00,-0.02,1.00,-0.09,0.79,-0.56,55,67,247
46,1418332,-170.7,0.0,-1.2,0.0,337.6,0.000000,0.000000,0.00,0.0,0.0,1.2,0.00,-0.02,1.00,-0.09,0.72,-0.56,55,67,247
47,1418429,-170.7,0.0,-1.2,-0.0,337.5,0.000000,0.000000,0.00,0.0,0.0,1.2,0.00,-0.02,1.00,-0.09,0.72,-0.70,55,67,247
48,1418526,-170.7,0.0,-1.2,0.0,337.5,0.000000,0.000000,0.00,0.0,0.0,1.2,-0.00,-0.02,1.00,-0.16,0.72,-0.56,55,67,247
49,1418624,-170.7,0.0,-1.1,0.0,337.5,0.000000,0.000000,0.00,0.0,0.0,1.2,-0.00,-0.02,1.00,-0.16,0.79,-0.49,55,67,247
50,1418721,-170.8,0.0,-1.2,0.1,337.5,0.000000,0.000000,0.00,0.0,0.0,1.2,-0.00,-0.02,1.00,-0.16,0.72,-0.56,55,67,247
51,1418818,-170.8,0.0,-1.2,0.0,337.5,0.000000,0.000000,0.00,0.0,0.0,1.2,0.00,-0.02,1.00,-0.09,0.72,-0.56,55,67,247
52,1418916,-170.8,0.0,-1.2,0.0,337.4,0.000000,0.000000,0.00,0.0,0.0,1.2,-0.00,-0.02,1.00,-0.09,0.72,-0.56,55,67,247
53,1419013,-170.8,0.0,-1.2,-0.0,337.3,0.000000,0.000000,0.00,0.0,0.0,1.2,0.00,-0.02,1.00,-0.16,0.79,-0.56,55,67,247
54,1419110,-170.7,0.0,-1.2,-0.0,337.3,0.000000,0.000000,0.00,0.0,0.0,1.2,-0.00,-0.02,1.00,-0.09,0.79,-0.56,55,67,247
55,1419208,-170.7,0.0,-1.2,-0.0,337.3,0.000000,0.000000,0.00,0.0,0.0,1.2,-0.00,-0.02,1.00,-0.09,0.72,-0.49,55,67,247
56,1419305,-170.7,0.0,-1.2,-0.0,337.2,0.000000,0.000000,0.00,0.0,0.0,1.2,0.00,-0.02,1.00,-0.09,0.72,-0.56,55,67,247
57,1419402,-170.7,0.0,-1.1,0.1,337.3,0.000000,0.000000,0.00,0.0,0.0,1.2,-0.00,-0.02,1.00,-0.16,0.72,-0.49,55,67,247
58,1419500,-170.7,0.0,-1.1,0.1,337.4,0.000000,0.000000,0.00,0.0,0.0,1.2,-0.00,-0.02,1.00,-0.16,0.58,-0.56,55,67,247
59,1419597,-170.7,0.0,-1.1,0.0,337.5,0.000000,0.000000,0.00,0.0,0.0,1.2,0.00,-0.02,1.00,-0.16,0.72,-0.56,55,67,247
60,1419694,-170.7,0.0,-1.1,0.0,337.5,0.000000,0.000000,0.00,0.0,0.0,1.2,0.00,-0.02,1.00,-0.16,0.72,-0.49,55,67,247
61,1419792,-170.7,0.0,-1.2,0.1,337.6,0.000000,0.000000,0.00,0.0,0.0,1.2,-0.00,-0.02,1.00,-0.09,0.72,-0.63,55,67,247
62,1419889,-170.7,0.0,-1.2,0.0,337.6,0.000000,0.000000,0.00,0.0,0.0,1.2,-0.00,-0.02,1.00,-0.16,0.65,-0.49,55,67,247
63,1419986,-170.7,0.0,-1.2,0.0,337.6,0.000000,0.000000,0.00,0.0,0.0,1.2,-0.00,-0.02,1.00,-0.09,0.72,-0.56,55,67,247
64,1420084,-170.8,0.0,-1.2,0.0,337.6,0.000000,0.000000,0.00,0.0,0.0,1.2,-0.00,-0.02,1.00,-0.02,0.72,-0.56,55,67,247
65,1420181,-170.8,0.0,-1.2,0.1,337.6,0.000000,0.000000,0.00,0.0,0.0,1.2,-0.00,-0.02,1.00,-0.16,0.86,-0.56,55,67,247
66,1420278,-170.8,0.0,-1.2,0.1,337.5,0.000000,0.000000,0.00,0.0,0.0,1.2,-0.00,-0.02,1.00,-0.09,0.65,-0.49,55,67,247
67,1420376,-170.7,0.0,-1.0,0.2,337.7,0.000000,0.000000,0.00,0.0,0.0,1.2,-0.00,-0.02,1.00,-0.16,0.72,-0.42,55,67,247
68,1420473,-170.7,0.0,-0.9,0.1,338.0,0.000000,0.000000,0.00,0.0,0.0,1.2,-0.00,-0.02,1.00,-0.09,0.72,-0.56,55,67,247
69,1420570,-170.7,0.0,-1.0,0.1,338.2,0.000000,0.000000,0.00,0.0,0.0,1.2,0.00,-0.02,1.00,-0.16,0.72,-0.56,55,67,247
70,1420668,-170.7,0.0,-1.0,0.1,338.4,0.000000,0.000000,0.00,0.0,0.0,1.2,-0.00,-0.02,1.00,-0.09,0.72,-0.56,55,67,247
71,1420765,-170.7,0.0,-1.0,0.1,338.6,0.000000,0.000000,0.00,0.0,0.0,1.2,-0.00,-0.02,1.00,-0.09,0.72,-0.56,55,67,247
72,1420862,-170.7,0.0,-1.2,0.0,338.6,0.000000,0.000000,0.00,0.0,0.0,1.2,-0.00,-0.02,1.00,-0.09,0.72,-0.56,55,67,247
73,1420960,-170.7,0.0,-1.3,-0.0,338.5,0.000000,0.000000,0.00,0.0,0.0,1.2,0.00,-0.02,1.00,-0.09,0.72,-0.56,55,67,247
74,1421057,-170.7,0.0,-1.3,0.0,338.4,0.000000,0.000000,0.00,0.0,0.0,1.2,-0.00,-0.02,1.00,-0.09,0.72,-0.63,55,67,247
75,1421154,-170.7,0.0,-1.3,-0.0,338.3,0.000000,0.000000,0.00,0.0,0.0,1.2,0.00,-0.02,1.00,-0.09,0.79,-0.49,55,67,247
76,1421252,-170.7,0.0,-1.3,-0.0,338.2,0.000000,0.000000,0.00,0.0,0.0,1.2,-0.00,-0.02,1.00,-0.02,0.72,-0.63,55,67,247
77,1421349,-170.7,0.0,-1.3,-0.0,338.2,0.000000,0.000000,0.00,0.0,0.0,1.2,-0.00,-0.02,1.00,-0.09,0.72,-0.49,55,67,247
78,1421446,-170.7,0.0,-1.3,0.0,338.1,0.000000,0.000000,0.00,0.0,0.0,1.2,-0.00,-0.02,1.00,-0.16,0.72,-0.63,55,67,247
79,1421544,-170.7,0.0,-1.2,0.0,338.0,0.000000,0.000000,0.00,0.0,0.0,1.2,-0.00,-0.02,1.00,-0.16,0.65,-0.56,55,67,247
80,1421641,-170.7,0.0,-1.3,-0.1,338.0,0.000000,0.000000,0.00,0.0,0.0,1.2,0.00,-0.02,1.00,-0.16,0.72,-0.63,55,67,247
81,1421738,-170.7,0.0,-1.3,0.0,337.9,0.000000,0.000000,0.00,0.0,0.0,1.2,-0.00,-0.02,1.00,-0.16,0.72,-0.63,55,67,247
82,1421836,-170.7,0.0,-1.3,0.0,337.8,0.000000,0.000000,0.00,0.0,0.0,1.2,-0.00,-0.02,1.00,-0.16,0.72,-0.56,55,67,247
83,1421933,-170.7,0.0,-1.3,0.0,337.7,0.000000,0.000000,0.00,0.0,0.0,1.2,-0.00,-0.02,1.00,-0.16,0.72,-0.56,55,67,247
84,1422030,-170.7,0.0,-1.3,0.0,337.6,0.000000,0.000000,0.00,0.0,0.0,1.2,-0.00,-0.02,1.00,-0.23,0.65,-0.49,55,67,247
85,1422128,-170.7,0.0,-1.3,-0.0,337.6,0.000000,0.000000,0.00,0.0,0.0,1.2,0.00,-0.02,1.00,-0.16,0.72,-0.56,55,67,247
86,1422225,-170.7,0.0,-1.3,-0.0,337.5,0.000000,0.000000,0.00,0.0,0.0,1.2,-0.00,-0.02,1.00,-0.09,0.65,-0.49,55,67,247
87,1422322,-170.7,0.0,-1.2,0.1,337.5,0.000000,0.000000,0.00,0.0,0.0,1.2,-0.00,-0.02,1.00,-0.09,0.72,-0.49,55,67,247
88,1422420,-170.7,0.0,-1.2,0.1,337.5,0.000000,0.000000,0.00,0.0,0.0,1.2,-0.00,-0.02,1.00,-0.09,0.72,-0.63,55,67,247
89,1422517,-170.7,0.0,-1.2,0.1,337.6,0.000000,0.000000,0.00,0.0,0.0,1.2,-0.00,-0.02,1.00,-0.16,0.65,-0.63,55,67,247
90,1422614,-170.7,0.0,-1.2,0.1,337.6,0.000000,0.000000,0.00,0.0,0.0,1.2,-0.00,-0.02,1.00,-0.09,0.72,-0.49,55,67,247
91,1422712,-170.7,0.0,-1.1,0.1,337.6,0.000000,0.000000,0.00,0.0,0.0,1.2,-0.00,-0.02,1.00,-0.16,0.72,-0.56,55,67,247
92,1422809,-170.7,0.0,-1.2,0.0,337.6,0.000000,0.000000,0.00,0.0,0.0,1.2,-0.00,-0.02,1.00,-0.09,0.72,-0.56,55,67,247
93,1422906,-170.7,0.0,-1.2,0.0,337.6,0.000000,0.000000,0.00,0.0,0.0,1.2,-0.00,-0.02,1.00,-0.02,0.72,-0.63,55,67,247
94,1423004,-170.7,0.0,-1.2,0.0,337.6,0.000000,0.000000,0.00,0.0,0.0,1.2,-0.00,-0.02,1.00,-0.09,0.65,-0.56,55,67,247
95,1423101,-170.7,0.0,-1.1,0.1,337.6,0.000000,0.000000,0.00,0.0,0.0,1.2,-0.00,-0.02,1.00,-0.09,0.72,-0.56,55,67,247
96,1423198,-170.7,0.0,-1.2,0.0,337.6,0.000000,0.000000,0.00,0.0,0.0,1.2,-0.00,-0.02,1.00,-0.09,0.72,-0.56,55,67,247
97,1423296,-170.7,0.0,-1.2,0.0,337.6,0.000000,0.000000,0.00,0.0,0.0,1.2,-0.00,-0.02,1.00,-0.09,0.72,-0.63,55,67,247
98,1423393,-170.7,0.0,-1.2,0.1,337.7,0.000000,0.000000,0.00,0.0,0.0,1.2,-0.00,-0.02,1.00,-0.16,0.72,-0.49,55,67,247
99,1423490,-170.7,0.0,-1.1,0.1,337.7,0.000000,0.000000,0.00,0.0,0.0,1.2,-0.00,-0.02,1.00,-0.02,0.72,-0.49,55,67,247
100,1423588,-170.7,0.0,-1.2,0.1,337.7,0.000000,0.000000,0.00,0.0,0.0,1.2,-0.00,-0.02,1.00,-0.09,0.79,-0.56,55,67,247
101,1423685,-170.7,0.0,-1.2,0.0,337.8,0.000000,0.000000,0.00,0.0,0.0,1.2,0.00,-0.02,1.00,-0.16,0.72,-0.56,55,67,247
102,1423782,-170.7,0.0,-1.2,0.0,337.8,0.000000,0.000000,0.00,0.0,0.0,1.2,-0.00,-0.02,1.00,-0.02,0.65,-0.49,55,67,247
103,1423880,-170.7,0.0,-1.2,0.0,337.8,0.000000,0.000000,0.00,0.0,0.0,1.2,-0.00,-0.02,1.00,-0.09,0.79,-0.56,55,67,247
104,1423977,-170.7,0.0,-1.2,0.0,337.8,0.000000,0.000000,0.00,0.0,0.0,1.2,-0.00,-0.02,1.00,-0.09,0.72,-0.63,55,67,247
105,1424074,-170.7,0.0,-1.2,0.0,337.7,0.000000,0.000000,0.00,0.0,0.0,1.2,-0.00,-0.02,1.00,-0.09,0.65,-0.49,55,67,247
106,1424172,-170.7,0.0,-1.2,0.0,337.7,0.000000,0.000000,0.00,0.0,0.0,1.2,-0.00,-0.02,1.00,-0.09,0.65,-0.56,55,67,247
107,1424269,-170.7,0.0,-1.2,0.0,337.7,0.000000,0.000000,0.00,0.0,0.0,1.2,-0.00,-0.02,1.00,-0.09,0.72,-0.49,55,67,247
108,1424366,-170.7,0.0,-1.2,0.1,337.7,0.000000,0.000000,0.00,0.0,0.0,1.2,-0.00,-0.02,1.00,-0.09,0.72,-0.49,55,67,247
109,1424464,-170.7,0.0,-1.2,0.1,337.7,0.000000,0.000000,0.00,0.0,0.0,1.2,-0.00,-0.02,1.00,-0.09,0.72,-0.56,55,67,247
110,1424561,-170.7,0.0,-1.2,-0.0,337.7,0.000000,0.000000,0.00,0.0,0.0,1.2,0.00,-0.02,1.00,-0.09,0.72,-0.56,55,67,247
111,1424658,-170.7,0.0,-1.1,0.0,337.7,0.000000,0.000000,0.00,0.0,0.0,1.2,0.00,-0.02,1.00,-0.09,0.72,-0.49,55,67,247
112,1424756,-170.7,0.0,-1.2,0.0,337.7,0.000000,0.000000,0.00,0.0,0.0,1.2,-0.00,-0.02,1.00,-0.09,0.72,-0.56,55,67,247
113,1424853,-170.7,0.0,-1.3,-0.0,337.7,0.000000,0.000000,0.00,0.0,0.0,1.2,-0.00,-0.02,1.00,-0.09,0.72,-0.56,55,67,247
114,1424950,-170.7,0.0,-1.3,-0.1,337.6,0.000000,0.000000,0.00,0.0,0.0,1.2,0.00,-0.02,1.00,-0.16,0.72,-0.49,55,67,247
115,1425048,-170.7,0.0,-1.3,-0.0,337.5,0.000000,0.000000,0.00,0.0,0.0,1.2,-0.00,-0.02,1.00,-0.09,0.72,-0.56,55,67,247
116,1425145,-170.7,0.0,-1.3,0.0,337.4,0.000000,0.000000,0.00,0.0,0.0,1.2,-0.00,-0.02,1.00,-0.16,0.72,-0.56,55,67,247
117,1425242,-170.7,0.0,-1.2,-0.0,337.4,0.000000,0.000000,0.00,0.0,0.0,1.2,-0.00,-0.02,1.00,-0.16,0.72,-0.56,55,67,247
118,1425340,-170.7,0.0,-1.1,0.1,337.4,0.000000,0.000000,0.00,0.0,0.0,1.2,-0.00,-0.02,1.00,-0.16,0.72,-0.56,55,67,247
119,1425437,-170.7,0.0,-0.9,0.1,337.6,0.000000,0.000000,0.00,0.0,0.0,1.2,-0.00,-0.02,1.00,-0.02,0.72,-0.56,55,67,247
120,1425534,-170.7,0.0,-1.0,0.2,337.8,0.000000,0.000000,0.00,0.0,0.0,1.2,-0.00,-0.02,1.00,-0.02,0.72,-0.56,55,67,247
121,1425632,-170.7,0.0,-1.0,0.1,337.9,0.000000,0.000000,0.00,0.0,0.0,1.2,-0.00,-0.02,1.00,-0.09,0.72,-0.63,55,67,247
122,1425729,-170.7,0.0,-1.0,0.1,338.1,0.000000,0.000000,0.00,0.0,0.0,1.2,0.00,-0.02,1.00,-0.16,0.72,-0.56,55,67,247
123,1425826,-170.7,0.0,-1.1,0.1,338.1,0.000000,0.000000,0.00,0.0,0.0,1.2,-0.00,-0.02,1.00,-0.02,0.72,-0.49,55,67,247
124,1425924,-170.7,0.0,-1.1,0.1,338.1,0.000000,0.000000,0.00,0.0,0.0,1.2,-0.00,-0.02,1.00,-0.16,0.72,-0.63,55,67,247
125,1426021,-170.7,0.0,-1.2,0.1,338.2,0.000000,0.000000,0.00,0.0,0.0,1.2,-0.00,-0.02,1.00,-0.02,0.72,-0.56,55,67,247
126,1426118,-170.7,0.0,-1.1,0.1,338.2,0.000000,0.000000,0.00,0.0,0.0,1.2,-0.00,-0.02,1.00,-0.09,0.72,-0.56,55,67,247
127,1426216,-170.7,0.0,-1.2,0.0,338.2,0.000000,0.000000,0.00,0.0,0.0,1.2,0.00,-0.02,1.00,-0.09,0.72,-0.56,55,67,247
128,1426313,-170.7,0.0,-1.1,0.0,338.2,0.000000,0.000000,0.00,0.0,0.0,1.2,-0.00,-0.02,1.00,-0.16,0.72,-0.56,55,67,247
129,1426410,-170.7,0.0,-1.2,0.1,338.2,0.000000,0.000000,0.00,0.0,0.0,1.2,-0.00,-0.02,1.00,-0.09,0.79,-0.56,55,67,247
130,1426508,-170.7,0.0,-1.2,0.0,338.2,0.000000,0.000000,0.00,0.0,0.0,1.2,-0.00,-0.02,1.00,-0.16,0.65,-0.56,55,67,247
131,1426605,-170.7,0.0,-1.2,0.1,338.3,0.000000,0.000000,0.00,0.0,0.0,1.2,-0.00,-0.02,1.00,-0.16,0.72,-0.56,55,67,247
132,1426702,-170.7,0.0,-1.2,0.0,338.3,0.000000,0.000000,0.00,0.0,0.0,1.2,-0.00,-0.02,1.00,-0.09,0.72,-0.49,55,67,247
133,1426800,-170.7,0.0,-1.2,0.1,338.3,0.000000,0.000000,0.00,0.0,0.0,1.2,-0.00,-0.02,1.00,-0.09,0.79,-0.63,55,67,247
134,1426897,-170.7,0.0,-1.3,-0.0,338.1,0.000000,0.000000,0.00,0.0,0.0,1.2,-0.00,-0.02,1.00,-0.16,0.72,-0.56,55,67,247
135,1426994,-170.7,0.0,-1.3,-0.0,338.0,0.000000,0.000000,0.00,0.0,0.0,1.2,-0.00,-0.02,1.00,-0.09,0.72,-0.49,55,67,247
136,1427092,-170.7,0.0,-1.3,-0.0,337.9,0.000000,0.000000,0.00,0.0,0.0,1.2,-0.00,-0.02,1.00,-0.16,0.65,-0.49,55,67,247
137,1427189,-170.7,0.0,-1.3,0.0,337.8,0.000000,0.000000,0.00,0.0,0.0,1.2,-0.00,-0.02,1.00,-0.16,0.65,-0.56,55,67,247
138,1427286,-170.7,0.0,-1.3,0.0,337.7,0.000000,0.000000,0.00,0.0,0.0,1.2,-0.00,-0.02,1.00,-0.16,0.65,-0.56,55,67,247
139,1427384,-170.7,0.0,-1.2,-0.0,337.7,0.000000,0.000000,0.00,0.0,0.0,1.2,-0.00,-0.02,1.00,-0.02,0.72,-0.56,55,67,247
140,1427481,-170.7,0.0,-1.3,-0.0,337.6,0.000000,0.000000,0.00,0.0,0.0,1.2,-0.00,-0.02,1.00,-0.09,0.72,-0.56,55,67,247
141,1427578,-170.7,0.0,-1.2,-0.0,337.6,0.000000,0.000000,0.00,0.0,0.0,1.2,0.00,-0.02,1.00,-0.09,0.72,-0.49,55,67,247
142,1427676,-170.7,0.0,-1.2,0.0,337.6,0.000000,0.000000,0.00,0.0,0.0,1.2,-0.00,-0.02,1.00,-0.02,0.72,-0.63,55,67,247
143,1427773,-170.7,0.0,-1.2,0.0,337.5,0.000000,0.000000,0.00,0.0,0.0,1.2,-0.00,-0.02,1.00,-0.09,0.72,-0.63,55,67,247
144,1427870,-170.7,0.0,-1.4,-0.1,337.3,0.000000,0.000000,0.00,0.0,0.0,1.2,0.00,-0.02,1.00,-0.16,0.79,-0.63,55,67,247
145,1427968,-170.7,0.0,-1.4,-0.0,337.2,0.000000,0.000000,0.00,0.0,0.0,1.2,-0.00,-0.02,1.00,-0.09,0.72,-0.49,55,67,247
146,1428065,-170.7,0.0,-1.4,-0.0,337.0,0.000000,0.000000,0.00,0.0,0.0,1.2,-0.00,-0.02,1.00,-0.16,0.72,-0.49,55,67,247
147,1428162,-170.7,0.0,-1.4,-0.0,336.9,0.000000,0.000000,0.00,0.0,0.0,1.2,-0.00,-0.02,1.00,-0.09,0.79,-0.56,55,67,247
148,1428260,-170.7,0.0,-1.3,-0.0,336.8,0.000000,0.000000,0.00,0.0,0.0,1.2,-0.00,-0.02,1.00,-0.16,0.72,-0.63,55,67,247
149,1428357,-170.7,0.0,-1.2,0.1,336.9,0.000000,0.000000,0.00,0.0,0.0,1.2,-0.00,-0.02,1.00,-0.09,0.72,-0.56,55,67,247
150,1428454,-170.7,0.0,-1.1,0.1,337.0,0.000000,0.000000,0.00,0.0,0.0,1.2,-0.00,-0.02,1.00,-0.09,0.72,-0.56,55,67,247
151,1428552,-170.7,0.0,-1.2,0.1,337.0,0.000000,0.000000,0.00,0.0,0.0,1.2,-0.00,-0.02,1.00,-0.16,0.72,-0.56,55,67,247
152,1428649,-170.7,0.0,-1.1,0.0,337.0,0.000000,0.000000,0.00,0.0,0.0,1.2,-0.00,-0.02,1.00,-0.09,0.72,-0.56,55,67,247
153,1428746,-170.7,0.0,-1.1,0.1,337.1,0.000000,0.000000,0.00,0.0,0.0,1.2,-0.00,-0.02,1.00,-0.09,0.65,-0.56,55,67,247
154,1428844,-170.7,0.0,-1.0,0.1,337.3,0.000000,0.000000,0.00,0.0,0.0,1.2,0.00,-0.02,1.00,-0.16,0.72,-0.49,55,67,247
155,1428941,-170.7,0.0,-1.0,0.2,337.5,0.000000,0.000000,0.00,0.0,0.0,1.2,-0.00,-0.02,1.00,-0.16,0.72,-0.49,55,67,247
156,1429038,-170.7,0.0,-1.1,0.1,337.7,0.000000,0.000000,0.00,0.0,0.0,1.2,-0.00,-0.02,1.00,-0.16,0.79,-0.56,55,67,247
157,1429136,-170.7,0.0,-1.1,0.1,337.8,0.000000,0.000000,0.00,0.0,0.0,1.2,0.00,-0.02,1.00,-0.16,0.79,-0.56,55,67,247
158,1429233,-170.7,0.0,-1.1,0.1,337.9,0.000000,0.000000,0.00,0.0,0.0,1.2,-0.00,-0.02,1.00,-0.09,0.72,-0.49,55,67,247
159,1429330,-170.7,0.0,-1.1,0.1,338.0,0.000000,0.000000,0.00,0.0,0.0,1.2,-0.00,-0.02,1.00,-0.09,0.72,-0.49,55,67,247
160,1429428,-170.7,0.0,-1.2,0.0,338.0,0.000000,0.000000,0.00,0.0,0.0,1.2,0.00,-0.02,1.00,-0.16,0.79,-0.56,55,67,247
161,1429525,-170.7,0.0,-1.2,0.0,338.0,0.000000,0.000000,0.00,0.0,0.0,1.2,-0.00,-0.02,1.00,-0.09,0.79,-0.63,55,67,247
162,1429622,-170.7,0.0,-1.2,0.0,338.1,0.000000,0.000000,0.00,0.0,0.0,1.2,-0.00,-0.02,1.00,-0.09,0.79,-0.49,55,67,247
163,1429720,-170.7,0.0,-1.2,0.0,338.1,0.000000,0.000000,0.00,0.0,0.0,1.2,-0.00,-0.02,1.00,-0.09,0.65,-0.56,55,67,247
164,1429817,-170.7,0.0,-1.3,0.0,338.0,0.000000,0.000000,0.00,0.0,0.0,1.2,-0.00,-0.02,1.00,-0.16,0.65,-0.56,55,67,247
165,1429914,-170.7,0.0,-1.2,0.0,337.9,0.000000,0.000000,0.00,0.0,0.0,1.2,-0.00,-0.02,1.00,-0.16,0.72,-0.56,55,67,247
166,1430012,-170.7,0.0,-1.3,0.0,337.9,0.000000,0.000000,0.00,0.0,0.0,1.2,-0.00,-0.02,1.00,-0.02,0.72,-0.56,55,67,247
167,1430109,-170.7,0.0,-1.2,0.0,337.8,0.000000,0.000000,0.00,0.0,0.0,1.2,-0.00,-0.02,1.00,-0.16,0.79,-0.56,55,67,247
168,1430206,-170.7,0.0,-1.2,0.0,337.8,0.000000,0.000000,0.00,0.0,0.0,1.2,-0.00,-0.02,1.00,-0.09,0.72,-0.56,55,67,247
169,1430304,-170.7,0.0,-1.1,0.1,337.8,0.000000,0.000000,0.00,0.0,0.0,1.2,-0.00,-0.02,1.00,-0.09,0.79,-0.49,55,67,247
170,1430401,-170.7,0.0,-1.1,0.1,338.0,0.000000,0.000000,0.00,0.0,0.0,1.2,-0.00,-0.02,1.00,-0.09,0.72,-0.56,55,67,247
171,1430498,-170.7,0.0,-1.1,0.1,338.1,0.000000,0.000000,0.00,0.0,0.0,1.2,-0.00,-0.02,1.00,-0.09,0.72,-0.56,55,67,247
172,1430596,-170.7,0.0,-1.1,0.1,338.1,0.000000,0.000000,0.00,0.0,0.0,1.2,-0.00,-0.02,1.00,-0.02,0.72,-0.56,55,67,247
173,1430693,-170.7,0.0,-1.2,0.1,338.2,0.000000,0.000000,0.00,0.0,0.0,1.2,-0.00,-0.02,1.00,-0.09,0.79,-0.56,55,67,247
174,1430790,-170.7,0.0,-1.3,0.0,338.1,0.000000,0.000000,0.00,0.0,0.0,1.2,-0.00,-0.02,1.00,-0.09,0.72,-0.49,55,67,247
175,1430888,-170.7,0.0,-1.3,-0.0,338.0,0.000000,0.000000,0.00,0.0,0.0,1.2,-0.00,-0.02,1.00,-0.09,0.72,-0.63,55,67,247
176,1430985,-170.7,0.0,-1.4,-0.0,337.8,0.000000,0.000000,0.00,0.0,0.0,1.2,-0.00,-0.02,1.00,-0.16,0.72,-0.49,55,67,247
177,1431082,-170.7,0.0,-1.3,0.0,337.7,0.000000,0.000000,0.00,0.0,0.0,1.2,-0.00,-0.02,1.00,-0.09,0.72,-0.56,55,67,247
178,1431180,-170.7,0.0,-1.3,-0.1,337.6,0.000000,0.000000,0.00,0.0,0.0,1.2,0.00,-0.02,1.00,-0.09,0.79,-0.63,55,67,247
179,1431277,-170.7,0.0,-1.3,-0.0,337.5,0.000000,0.000000,0.00,0.0,0.0,1.2,-0.00,-0.02,1.00,-0.09,0.72,-0.56,55,67,247
180,1431374,-170.7,0.0,-1.0,0.1,337.8,0.000000,0.000000,0.00,0.0,0.0,1.2,-0.00,-0.02,1.00,-0.16,0.79,-0.56,55,67,247
181,1431472,-170.7,0.0,-1.0,0.1,337.9,0.000000,0.000000,0.00,0.0,0.0,1.2,-0.00,-0.02,1.00,-0.09,0.72,-0.49,55,67,247
182,1431569,-170.7,0.0,-1.0,0.1,338.1,0.000000,0.000000,0.00,0.0,0.0,1.2,-0.00,-0.02,1.00,-0.09,0.72,-0.63,55,67,247
183,1431666,-170.7,0.0,-1.1,0.1,338.2,0.000000,0.000000,0.00,0.0,0.0,1.2,-0.00,-0.02,1.00,-0.09,0.72,-0.56,55,67,247
184,1431764,-170.7,0.0,-1.1,0.1,338.3,0.000000,0.000000,0.00,0.0,0.0,1.2,-0.00,-0.02,1.00,-0.23,0.72,-0.56,55,67,247
185,1431861,-170.7,0.0,-1.3,-0.0,338.2,0.000000,0.000000,0.00,0.0,0.0,1.2,-0.00,-0.02,1.00,-0.16,0.72,-0.56,55,67,247
186,1431959,-170.7,0.0,-1.3,-0.0,338.1,0.000000,0.000000,0.00,0.0,0.0,1.2,0.00,-0.02,1.00,-0.09,0.72,-0.63,55,67,247
187,1432056,-170.7,0.0,-1.3,-0.0,338.0,0.000000,0.000000,0.00,0.0,0.0,1.2,0.00,-0.02,1.00,-0.09,0.72,-0.56,55,67,247
188,1432153,-170.7,0.0,-1.2,0.0,337.9,0.000000,0.000000,0.00,0.0,0.0,1.2,-0.00,-0.02,1.00,-0.09,0.79,-0.49,55,67,247
189,1432250,-170.7,0.0,-1.2,-0.1,337.8,0.000000,0.000000,0.00,0.0,0.0,1.2,0.00,-0.02,1.00,-0.09,0.72,-0.56,55,67,247
190,1432348,-170.7,0.0,-1.1,0.1,338.0,0.000000,0.000000,0.00,0.0,0.0,1.2,-0.00,-0.02,1.00,-0.16,0.72,-0.56,55,67,247
191,1432445,-170.7,0.0,-1.1,0.1,338.1,0.000000,0.000000,0.00,0.0,0.0,1.2,-0.00,-0.02,1.00,-0.16,0.72,-0.49,55,67,247
192,1432542,-170.7,0.0,-1.1,0.0,338.1,0.000000,0.000000,0.00,0.0,0.0,1.2,-0.00,-0.02,1.00,-0.16,0.72,-0.56,55,67,247
193,1432640,-170.7,0.0,-1.2,0.0,338.2,0.000000,0.000000,0.00,0.0,0.0,1.2,-0.00,-0.02,1.00,-0.16,0.72,-0.56,55,67,247
194,1432737,-170.7,0.0,-1.1,0.0,338.3,0.000000,0.000000,0.00,0.0,0.0,1.2,-0.00,-0.02,1.00,-0.16,0.72,-0.63,55,67,247
195,1432834,-170.7,0.0,-1.2,0.1,338.3,0.000000,0.000000,0.00,0.0,0.0,1.2,-0.00,-0.02,1.00,-0.09,0.72,-0.56,55,67,247
196,1432932,-170.7,0.0,-1.1,0.1,338.4,0.000000,0.000000,0.00,0.0,0.0,1.2,-0.00,-0.02,1.00,-0.09,0.72,-0.49,55,67,247
197,1433029,-170.7,0.0,-1.2,0.1,338.4,0.000000,0.000000,0.00,0.0,0.0,1.2,-0.00,-0.02,1.00,-0.09,0.79,-0.49,55,67,247
198,1433126,-170.7,0.0,-1.1,0.0,338.4,0.000000,0.000000,0.00,0.0,0.0,1.2,-0.00,-0.02,1.00,-0.09,0.72,-0.63,55,67,247
199,1433224,-170.7,0.0,-1.1,0.1,338.4,0.000000,0.000000,0.00,0.0,0.0,1.2,-0.00,-0.02,1.00,-0.09,0.79,-0.56,55,67,247
200,1433321,-170.7,0.0,-1.2,0.0,338.4,0.000000,0.000000,0.00,0.0,0.0,1.2,-0.00,-0.02,1.00,-0.09,0.72,-0.56,55,67,247
201,1433418,-170.7,0.0,-1.2,0.0,338.3,0.000000,0.000000,0.00,0.0,0.0,1.2,-0.00,-0.02,1.00,-0.16,0.72,-0.56,55,67,247
202,1433516,-170.7,0.0,-1.3,-0.0,338.3,0.000000,0.000000,0.00,0.0,0.0,1.2,-0.00,-0.02,1.00,-0.16,0.72,-0.49,55,67,247
203,1433613,-170.7,0.0,-1.2,-0.0,338.2,0.000000,0.000000,0.00,0.0,0.0,1.2,0.00,-0.02,1.00,-0.09,0.72,-0.56,55,67,247
204,1433710,-170.7,0.0,-1.3,0.0,338.2,0.000000,0.000000,0.00,0.0,0.0,1.2,-0.00,-0.02,1.00,-0.09,0.79,-0.63,55,67,247
205,1433808,-170.7,0.0,-1.2,-0.0,338.2,0.000000,0.000000,0.00,0.0,0.0,1.2,-0.00,-0.02,1.00,-0.09,0.65,-0.63,55,67,247
206,1433905,-170.7,0.0,-1.2,0.0,338.1,0.000000,0.000000,0.00,0.0,0.0,1.2,-0.00,-0.02,1.00,-0.09,0.79,-0.56,55,67,247
207,1434003,-170.7,0.0,-1.2,0.0,338.0,0.000000,0.000000,0.00,0.0,0.0,1.2,-0.00,-0.02,1.00,-0.16,0.72,-0.56,55,67,247
208,1434100,-170.7,0.0,-1.2,0.0,338.0,0.000000,0.000000,0.00,0.0,0.0,1.2,-0.00,-0.02,1.00,-0.09,0.72,-0.49,55,67,247
209,1434197,-170.7,0.0,-1.2,-0.0,338.0,0.000000,0.000000,0.00,0.0,0.0,1.2,0.00,-0.02,1.00,-0.16,0.72,-0.56,55,67,247
210,1434295,-170.7,0.0,-1.1,0.0,338.0,0.000000,0.000000,0.00,0.0,0.0,1.2,0.00,-0.02,1.00,-0.09,0.79,-0.56,55,67,247
211,1434392,-170.7,0.0,-1.2,0.0,338.0,0.000000,0.000000,0.00,0.0,0.0,1.2,0.00,-0.02,1.00,-0.16,0.72,-0.56,55,67,247
212,1434489,-170.7,0.0,-1.2,0.1,338.1,0.000000,0.000000,0.00,0.0,0.0,1.2,-0.00,-0.02,1.00,-0.09,0.72,-0.56,55,67,247
213,1434587,-170.7,0.0,-1.2,0.1,338.1,0.000000,0.000000,0.00,0.0,0.0,1.2,-0.00,-0.02,1.00,-0.16,0.72,-0.56,55,67,247
214,1434684,-170.7,0.0,-1.1,0.1,338.1,0.000000,0.000000,0.00,0.0,0.0,1.2,-0.00,-0.02,1.00,-0.16,0.72,-0.56,55,67,247
215,1434781,-170.7,0.0,-1.3,-0.0,338.1,0.000000,0.000000,0.00,0.0,0.0,1.2,-0.00,-0.02,1.00,-0.09,0.72,-0.49,55,67,247
216,1434879,-170.7,0.0,-1.3,-0.0,338.0,0.000000,0.000000,0.00,0.0,0.0,1.2,-0.00,-0.02,1.00,-0.16,0.72,-0.56,55,67,247
217,1434976,-170.7,0.0,-1.3,-0.0,337.9,0.000000,0.000000,0.00,0.0,0.0,1.2,-0.00,-0.02,1.00,-0.09,0.79,-0.56,55,67,247
218,1435073,-170.7,0.0,-1.3,0.0,337.8,0.000000,0.000000,0.00,0.0,0.0,1.2,-0.00,-0.02,1.00,-0.09,0.65,-0.56,55,67,247
219,1435171,-170.7,0.0,-1.3,0.0,337.7,0.000000,0.000000,0.00,0.0,0.0,1.2,-0.00,-0.02,1.00,-0.23,0.79,-0.63,55,67,247
220,1435268,-170.7,0.0,-1.3,0.0,337.7,0.000000,0.000000,0.00,0.0,0.0,1.2,-0.00,-0.02,1.00,-0.16,0.72,-0.56,55,67,247
221,1435365,-170.7,0.0,-1.3,-0.0,337.6,0.000000,0.000000,0.00,0.0,0.0,1.2,0.00,-0.02,1.00,-0.16,0.79,-0.56,55,67,247
222,1435463,-170.7,0.0,-1.3,-0.0,337.5,0.000000,0.000000,0.00,0.0,0.0,1.2,-0.00,-0.02,1.00,-0.09,0.65,-0.49,55,67,247
223,1435560,-170.7,0.0,-1.3,-0.0,337.4,0.000000,0.000000,0.00,0.0,0.0,1.2,0.00,-0.02,1.00,-0.16,0.72,-0.56,55,67,247
224,1435657,-170.7,0.0,-1.2,-0.0,337.4,0.000000,0.000000,0.00,0.0,0.0,1.2,0.00,-0.02,1.00,-0.09,0.72,-0.49,55,67,247
225,1435755,-170.7,0.0,-1.3,-0.0,337.3,0.000000,0.000000,0.00,0.0,0.0,1.2,-0.00,-0.02,1.00,-0.16,0.79,-0.56,55,67,247
226,1435852,-170.7,0.0,-1.3,-0.0,337.2,0.000000,0.000000,0.00,0.0,0.0,1.2,-0.00,-0.02,1.00,-0.09,0.79,-0.63,55,67,247
227,1435949,-170.7,0.0,-1.3,-0.1,337.1,0.000000,0.000000,0.00,0.0,0.0,1.2,0.00,-0.02,1.00,-0.16,0.65,-0.56,55,67,247
228,1436047,-170.7,0.0,-1.3,-0.1,337.0,0.000000,0.000000,0.00,0.0,0.0,1.2,-0.00,-0.02,1.00,-0.09,0.72,-0.63,55,67,247
229,1436144,-170.7,0.0,-1.3,-0.1,336.9,0.000000,0.000000,0.00,0.0,0.0,1.2,0.00,-0.02,1.00,-0.02,0.65,-0.49,55,67,247
230,1436241,-170.7,0.0,-1.3,-0.0,336.8,0.000000,0.000000,0.00,0.0,0.0,1.2,0.00,-0.02,1.00,-0.09,0.72,-0.56,55,67,247
231,1436339,-170.7,0.0,-0.9,0.2,337.1,0.000000,0.000000,0.00,0.0,0.0,1.2,-0.00,-0.02,1.00,-0.16,0.72,-0.56,55,67,247
232,1436436,-170.7,0.0,-0.9,0.2,337.3,0.000000,0.000000,0.00,0.0,0.0,1.2,-0.00,-0.02,1.00,-0.09,0.65,-0.56,55,67,247
233,1436533,-170.7,0.0,-1.0,0.1,337.5,0.000000,0.000000,0.00,0.0,0.0,1.2,-0.00,-0.02,1.00,-0.09,0.72,-0.56,55,67,247
234,1436631,-170.7,0.0,-1.0,0.1,337.7,0.000000,0.000000,0.00,0.0,0.0,1.2,0.00,-0.02,1.00,-0.09,0.65,-0.63,55,67,247
235,1436728,-170.7,0.0,-1.1,0.0,337.9,0.000000,0.000000,0.00,0.0,0.0,1.2,0.00,-0.02,1.00,-0.02,0.72,-0.63,55,67,247
236,1436825,-170.7,0.0,-1.1,0.1,338.0,0.000000,0.000000,0.00,0.0,0.0,1.2,-0.00,-0.02,1.00,-0.09,0.72,-0.63,55,67,247
237,1436923,-170.7,0.0,-1.1,0.1,338.1,0.000000,0.000000,0.00,0.0,0.0,1.2,-0.00,-0.02,1.00,-0.09,0.79,-0.56,55,67,247
238,1437020,-170.7,0.0,-1.1,0.1,338.1,0.000000,0.000000,0.00,0.0,0.0,1.2,-0.00,-0.02,1.00,-0.09,0.65,-0.56,55,67,247
239,1437117,-170.7,0.0,-1.2,0.0,338.2,0.000000,0.000000,0.00,0.0,0.0,1.2,-0.00,-0.02,1.00,-0.09,0.65,-0.56,55,67,247
240,1437215,-170.7,0.0,-1.1,0.1,338.3,0.000000,0.000000,0.00,0.0,0.0,1.2,-0.00,-0.02,1.00,-0.16,0.72,-0.49,55,67,247
241,1437312,-170.7,0.0,-1.1,0.1,338.3,0.000000,0.000000,0.00,0.0,0.0,1.2,-0.00,-0.02,1.00,-0.16,0.72,-0.56,55,67,247
242,1437409,-170.7,0.0,-1.1,0.1,338.3,0.000000,0.000000,0.00,0.0,0.0,1.2,-0.00,-0.02,1.00,-0.16,0.72,-0.49,55,67,247
243,1437507,-170.7,0.0,-1.2,0.1,338.4,0.000000,0.000000,0.00,0.0,0.0,1.2,-0.00,-0.02,1.00,-0.09,0.72,-0.63,55,67,247
244,1437604,-170.7,0.0,-1.1,0.1,338.4,0.000000,0.000000,0.00,0.0,0.0,1.2,-0.00,-0.02,1.00,-0.16,0.72,-0.56,55,67,247
245,1437701,-170.7,0.0,-1.2,0.1,338.4,0.000000,0.000000,0.00,0.0,0.0,1.2,-0.00,-0.02,1.00,-0.09,0.65,-0.56,55,67,247
246,1437799,-170.7,0.0,-1.2,0.1,338.4,0.000000,0.000000,0.00,0.0,0.0,1.2,-0.00,-0.02,1.00,-0.09,0.72,-0.63,55,67,247
247,1437896,-170.7,0.0,-1.2,0.1,338.4,0.000000,0.000000,0.00,0.0,0.0,1.2,-0.00,-0.02,1.00,-0.09,0.72,-0.70,55,67,247
248,1437993,-170.7,0.0,-1.2,-0.0,338.4,0.000000,0.000000,0.00,0.0,0.0,1.2,0.00,-0.02,1.00,-0.16,0.79,-0.56,55,67,247
249,1438091,-170.7,0.0,-1.2,0.0,338.4,0.000000,0.000000,0.00,0.0,0.0,1.2,0.00,-0.02,1.00,-0.16,0.72,-0.56,55,67,247
250,1438188,-170.7,0.0,-1.2,0.0,338.4,0.000000,0.000000,0.00,0.0,0.0,1.2,-0.00,-0.02,1.00,-0.09,0.72,-0.63,55,67,247
251,1438285,-170.7,0.0,-1.2,0.0,338.4,0.000000,0.000000,0.00,0.0,0.0,1.2,-0.00,-0.02,1.00,-0.16,0.65,-0.56,55,67,247
252,1438383,-170.7,0.0,-1.2,-0.0,338.4,0.000000,0.000000,0.00,0.0,0.0,1.2,0.00,-0.02,1.00,-0.09,0.65,-0.49,55,67,247
253,1438480,-170.7,0.0,-1.2,-0.0,338.4,0.000000,0.000000,0.00,0.0,0.0,1.2,0.00,-0.02,1.00,-0.09,0.72,-0.56,55,67,247
254,1438577,-170.7,0.0,-1.3,0.0,338.3,0.000000,0.000000,0.00,0.0,0.0,1.2,-0.00,-0.02,1.00,-0.09,0.72,-0.56,55,67,247
255,1438675,-170.7,0.0,-1.2,0.0,338.3,0.000000,0.000000,0.00,0.0,0.0,1.2,-0.00,-0.02,1.00,-0.16,0.65,-0.56,55,67,247
256,1438772,-170.7,0.0,-1.3,-0.0,338.2,0.000000,0.000000,0.00,0.0,0.0,1.2,-0.00,-0.02,1.00,-0.09,0.65,-0.56,55,67,247
257,1438869,-170.7,0.0,-1.3,-0.1,338.1,0.000000,0.000000,0.00,0.0,0.0,1.2,0.00,-0.02,1.00,-0.09,0.79,-0.63,55,67,247
258,1438967,-170.7,0.0,-1.3,0.0,338.0,0.000000,0.000000,0.00,0.0,0.0,1.2,-0.00,-0.02,1.00,-0.09,0.72,-0.56,55,67,247
259,1439064,-170.7,0.0,-1.3,-0.0,337.9,0.000000,0.000000,0.00,0.0,0.0,1.2,-0.00,-0.02,1.00,-0.16,0.72,-0.56,55,67,247
260,1439161,-170.7,0.0,-1.3,-0.0,337.8,0.000000,0.000000,0.00,0.0,0.0,1.2,0.00,-0.02,1.00,-0.09,0.79,-0.63,55,67,247
261,1439259,-170.7,0.0,-1.3,-0.0,337.7,0.000000,0.000000,0.00,0.0,0.0,1.2,-0.00,-0.02,1.00,-0.09,0.72,-0.56,55,67,247
262,1439356,-170.7,0.0,-1.3,-0.0,337.6,0.000000,0.000000,0.00,0.0,0.0,1.2,-0.00,-0.02,1.00,-0.16,0.72,-0.56,55,67,247
263,1439453,-170.7,0.0,-1.3,-0.0,337.5,0.000000,0.000000,0.00,0.0,0.0,1.2,-0.00,-0.02,1.00,-0.09,0.79,-0.56,55,67,247
264,1439551,-170.7,0.0,-1.3,-0.1,337.4,0.000000,0.000000,0.00,0.0,0.0,1.2,0.00,-0.02,1.00,-0.09,0.72,-0.49,55,67,247
265,1439648,-170.7,0.0,-1.3,0.0,337.3,0.000000,0.000000,0.00,0.0,0.0,1.2,-0.00,-0.02,1.00,-0.16,0.79,-0.56,55,67,247
266,1439745,-170.7,0.0,-1.2,-0.0,337.2,0.000000,0.000000,0.00,0.0,0.0,1.2,-0.00,-0.02,1.00,-0.16,0.72,-0.63,55,67,247
267,1439843,-170.7,0.0,-1.0,0.1,337.4,0.000000,0.000000,0.00,0.0,0.0,1.2,-0.00,-0.02,1.00,-0.16,0.72,-0.63,55,67,247
268,1439940,-170.7,0.0,-1.0,0.2,337.5,0.000000,0.000000,0.00,0.0,0.0,1.2,-0.00,-0.02,1.00,-0.16,0.72,-0.56,55,67,247
269,1440037,-170.7,0.0,-1.1,0.1,337.6,0.000000,0.000000,0.00,0.0,0.0,1.2,-0.00,-0.02,1.00,-0.09,0.72,-0.63,55,67,247
270,1440135,-170.7,0.0,-1.1,0.1,337.7,0.000000,0.000000,0.00,0.0,0.0,1.2,-0.00,-0.02,1.00,-0.02,0.65,-0.56,55,67,247
271,1440232,-170.7,0.0,-1.1,0.0,337.7,0.000000,0.000000,0.00,0.0,0.0,1.2,0.00,-0.02,1.00,-0.02,0.72,-0.56,55,67,247
272,1440329,-170.7,0.0,-1.3,-0.0,337.6,0.000000,0.000000,0.00,0.0,0.0,1.2,-0.00,-0.02,1.00,-0.09,0.79,-0.63,55,67,247
273,1440427,-170.7,0.0,-1.2,-0.0,337.6,0.000000,0.000000,0.00,0.0,0.0,1.2,0.00,-0.02,1.00,-0.16,0.72,-0.56,55,67,247
274,1440524,-170.7,0.0,-1.2,0.0,337.5,0.000000,0.000000,0.00,0.0,0.0,1.2,-0.00,-0.02,1.00,-0.16,0.72,-0.56,55,67,247
275,1440621,-170.7,0.0,-1.2,0.0,337.5,0.000000,0.000000,0.00,0.0,0.0,1.2,-0.00,-0.02,1.00,-0.09,0.72,-0.56,55,67,247
276,1440719,-170.7,0.0,-1.3,0.0,337.4,0.000000,0.000000,0.00,0.0,0.0,1.2,-0.00,-0.02,1.00,-0.09,0.72,-0.49,55,67,247
277,1440816,-170.7,0.0,-1.2,0.1,337.5,0.000000,0.000000,0.00,0.0,0.0,1.2,-0.00,-0.02,1.00,-0.09,0.72,-0.63,55,67,247
278,1440913,-170.7,0.0,-1.1,0.1,337.6,0.000000,0.000000,0.00,0.0,0.0,1.2,-0.00,-0.02,1.00,-0.02,0.72,-0.56,55,67,247
279,1441011,-170.7,0.0,-1.2,0.0,337.6,0.000000,0.000000,0.00,0.0,0.0,1.2,0.00,-0.02,1.00,-0.09,0.72,-0.56,55,67,247
280,1441108,-170.7,0.0,-1.1,0.1,337.7,0.000000,0.000000,0.00,0.0,0.0,1.2,-0.00,-0.02,1.00,-0.16,0.72,-0.56,55,67,247
281,1441205,-170.7,0.0,-1.2,0.1,337.7,0.000000,0.000000,0.00,0.0,0.0,1.2,-0.00,-0.02,1.00,-0.02,0.65,-0.49,55,67,247
282,1441303,-170.7,0.0,-1.2,0.1,337.7,0.000000,0.000000,0.00,0.0,0.0,1.2,-0.00,-0.02,1.00,-0.09,0.72,-0.56,55,67,247
283,1441400,-170.7,0.0,-1.2,0.1,337.7,0.000000,0.000000,0.00,0.0,0.0,1.2,-0.00,-0.02,1.00,-0.16,0.72,-0.49,55,67,247
284,1441497,-170.7,0.0,-1.2,0.0,337.7,0.000000,0.000000,0.00,0.0,0.0,1.2,-0.00,-0.02,1.00,-0.16,0.65,-0.63,55,67,247
285,1441595,-170.7,0.0,-1.2,0.1,337.7,0.000000,0.000000,0.00,0.0,0.0,1.2,-0.00,-0.02,1.00,-0.16,0.72,-0.63,55,67,247
286,1441692,-170.7,0.0,-1.2,0.1,337.7,0.000000,0.000000,0.00,0.0,0.0,1.2,-0.00,-0.02,1.00,-0.09,0.72,-0.49,55,67,247
287,1441789,-170.7,0.0,-1.2,0.1,337.8,0.000000,0.000000,0.00,0.0,0.0,1.2,-0.00,-0.02,1.00,-0.09,0.79,-0.56,55,67,247
288,1441887,-170.7,0.0,-1.2,0.1,337.8,0.000000,0.000000,0.00,0.0,0.0,1.2,-0.00,-0.02,1.00,-0.09,0.79,-0.56,55,67,247
289,1441984,-170.7,0.0,-1.2,0.1,337.8,0.000000,0.000000,0.00,0.0,0.0,1.2,-0.00,-0.02,1.00,-0.02,0.72,-0.49,55,67,247
290,1442081,-170.7,0.0,-1.2,0.0,337.8,0.000000,0.000000,0.00,0.0,0.0,1.2,-0.00,-0.02,1.00,-0.09,0.72,-0.56,55,67,247
291,1442179,-170.7,0.0,-1.2,0.1,337.8,0.000000,0.000000,0.00,0.0,0.0,1.2,-0.00,-0.02,1.00,-0.16,0.72,-0.56,55,67,247
292,1442276,-170.7,0.0,-1.3,0.0,337.7,0.000000,0.000000,0.00,0.0,0.0,1.2,-0.00,-0.02,1.00,-0.09,0.65,-0.63,55,67,247
293,1442373,-170.7,0.0,-1.4,-0.0,337.5,0.000000,0.000000,0.00,0.0,0.0,1.2,-0.00,-0.02,1.00,-0.09,0.72,-0.56,55,67,247
294,1442471,-170.7,0.0,-1.3,-0.0,337.4,0.000000,0.000000,0.00,0.0,0.0,1.2,-0.00,-0.02,1.00,-0.16,0.72,-0.56,55,67,247
295,1442568,-170.7,0.0,-1.3,-0.0,337.3,0.000000,0.000000,0.00,0.0,0.0,1.2,-0.00,-0.02,1.00,-0.09,0.72,-0.56,55,67,247
296,1442665,-170.7,0.0,-1.3,-0.1,337.2,0.000000,0.000000,0.00,0.0,0.0,1.2,0.00,-0.02,1.00,-0.16,0.72,-0.63,55,67,247
297,1442763,-170.7,0.0,-1.3,-0.0,337.1,0.000000,0.000000,0.00,0.0,0.0,1.2,-0.00,-0.02,1.00,-0.16,0.65,-0.56,55,67,247
298,1442860,-170.7,0.0,-1.3,-0.0,337.0,0.000000,0.000000,0.00,0.0,0.0,1.2,-0.00,-0.02,1.00,-0.09,0.72,-0.56,55,67,247
299,1442957,-170.7,0.0,-1.2,-0.0,336.9,0.000000,0.000000,0.00,0.0,0.0,1.2,0.00,-0.02,1.00,-0.09,0.79,-0.56,55,67,247
300,1443055,-170.7,0.0,-1.2,-0.0,336.9,0.000000,0.000000,0.00,0.0,0.0,1.2,-0.00,-0.02,1.00,-0.09,0.72,-0.56,55,67,247
301,1443152,-170.7,0.0,-1.3,0.0,336.8,0.000000,0.000000,0.00,0.0,0.0,1.2,-0.00,-0.02,1.00,-0.16,0.72,-0.56,55,67,247
302,1443249,-170.7,0.0,-1.1,0.1,336.9,0.000000,0.000000,0.00,0.0,0.0,1.2,-0.00,-0.02,1.00,-0.09,0.72,-0.49,55,67,247
303,1443347,-170.7,0.0,-1.1,0.1,337.0,0.000000,0.000000,0.00,0.0,0.0,1.2,-0.00,-0.02,1.00,-0.09,0.72,-0.49,55,67,247
304,1443444,-170.7,0.0,-1.1,0.1,337.1,0.000000,0.000000,0.00,0.0,0.0,1.2,-0.00,-0.02,1.00,-0.09,0.65,-0.49,55,67,247
305,1443541,-170.7,0.0,-1.1,0.1,337.2,0.000000,0.000000,0.00,0.0,0.0,1.2,-0.00,-0.02,1.00,-0.16,0.79,-0.56,55,67,247
306,1443639,-170.7,0.0,-1.1,0.1,337.3,0.000000,0.000000,0.00,0.0,0.0,1.2,-0.00,-0.02,1.00,-0.16,0.79,-0.63,55,67,247
307,1443736,-170.7,0.0,-1.1,0.1,337.4,0.000000,0.000000,0.00,0.0,0.0,1.2,-0.00,-0.02,1.00,-0.16,0.72,-0.56,55,67,247
308,1443833,-170.7,0.0,-1.1,0.1,337.5,0.000000,0.000000,0.00,0.0,0.0,1.2,-0.00,-0.02,1.00,-0.09,0.72,-0.56,55,67,247
309,1443931,-170.7,0.0,-1.1,0.1,337.6,0.000000,0.000000,0.00,0.0,0.0,1.2,-0.00,-0.02,1.00,-0.09,0.79,-0.56,55,67,247
310,1444028,-170.7,0.0,-1.1,0.1,337.6,0.000000,0.000000,0.00,0.0,0.0,1.2,-0.00,-0.02,1.00,-0.16,0.72,-0.56,55,67,247
311,1444125,-170.7,0.0,-1.1,0.1,337.7,0.000000,0.000000,0.00,0.0,0.0,1.2,-0.00,-0.02,1.00,-0.09,0.79,-0.56,55,67,247
312,1444223,-170.7,0.0,-1.1,0.0,337.7,0.000000,0.000000,0.00,0.0,0.0,1.2,0.00,-0.02,1.00,-0.09,0.72,-0.56,55,67,247
313,1444320,-170.7,0.0,-1.2,0.0,337.7,0.000000,0.000000,0.00,0.0,0.0,1.2,-0.00,-0.02,1.00,-0.09,0.72,-0.63,55,67,247
314,1444417,-170.7,0.0,-1.2,0.0,337.6,0.000000,0.000000,0.00,0.0,0.0,1.2,-0.00,-0.02,1.00,-0.16,0.72,-0.56,55,67,247
315,1444515,-170.7,0.0,-1.2,0.1,337.6,0.000000,0.000000,0.00,0.0,0.0,1.2,-0.00,-0.02,1.00,-0.16,0.72,-0.63,55,67,247
316,1444612,-170.7,0.0,-1.2,0.0,337.5,0.000000,0.000000,0.00,0.0,0.0,1.2,-0.00,-0.02,1.00,-0.09,0.79,-0.56,55,67,247
317,1444709,-170.7,0.0,-1.2,-0.0,337.5,0.000000,0.000000,0.00,0.0,0.0,1.2,0.00,-0.02,1.00,-0.09,0.72,-0.56,55,67,247
318,1444807,-170.7,0.0,-1.3,0.0,337.4,0.000000,0.000000,0.00,0.0,0.0,1.2,-0.00,-0.02,1.00,-0.09,0.72,-0.56,55,67,247
319,1444904,-170.7,0.0,-1.3,0.0,337.4,0.000000,0.000000,0.00,0.0,0.0,1.2,-0.00,-0.02,1.00,-0.09,0.72,-0.49,55,67,247
320,1445001,-170.7,0.0,-1.2,0.0,337.4,0.000000,0.000000,0.00,0.0,0.0,1.2,-0.00,-0.02,1.00,-0.16,0.72,-0.56,55,67,247
321,1445099,-170.7,0.0,-1.2,0.0,337.3,0.000000,0.000000,0.00,0.0,0.0,1.2,-0.00,-0.02,1.00,-0.09,0.72,-0.63,55,67,247
322,1445196,-170.7,0.0,-1.2,0.0,337.3,0.000000,0.000000,0.00,0.0,0.0,1.2,-0.00,-0.02,1.00,0.05,0.72,-0.56,55,67,247
323,1445293,-170.7,0.0,-1.3,0.0,337.2,0.000000,0.000000,0.00,0.0,0.0,1.2,-0.00,-0.02,1.00,-0.16,0.72,-0.56,55,67,247
324,1445391,-170.7,0.0,-1.2,0.0,337.2,0.000000,0.000000,0.00,0.0,0.0,1.2,-0.00,-0.02,1.00,-0.09,0.72,-0.56,55,67,247
325,1445488,-170.7,0.0,-1.2,0.0,337.1,0.000000,0.000000,0.00,0.0,0.0,1.2,-0.00,-0.02,1.00,-0.09,0.72,-0.63,55,67,247
326,1445585,-170.7,0.0,-1.2,0.0,337.1,0.000000,0.000000,0.00,0.0,0.0,1.2,-0.00,-0.02,1.00,-0.16,0.79,-0.56,55,67,247
327,1445683,-170.7,0.0,-1.3,0.0,337.1,0.000000,0.000000,0.00,0.0,0.0,1.2,-0.00,-0.02,1.00,-0.16,0.79,-0.56,55,67,247
328,1445780,-170.7,0.0,-1.1,0.0,337.1,0.000000,0.000000,0.00,0.0,0.0,1.2,-0.00,-0.02,1.00,-0.09,0.79,-0.56,55,67,247
329,1445877,-170.7,0.0,-1.2,0.0,337.1,0.000000,0.000000,0.00,0.0,0.0,1.2,0.00,-0.02,1.00,-0.02,0.79,-0.56,55,67,247
330,1445975,-170.7,0.0,-1.2,0.0,337.1,0.000000,0.000000,0.00,0.0,0.0,1.2,0.00,-0.02,1.00,-0.09,0.65,-0.56,55,67,247
331,1446072,-170.7,0.0,-1.1,0.0,337.2,0.000000,0.000000,0.00,0.0,0.0,1.2,-0.00,-0.02,1.00,-0.16,0.79,-0.56,55,67,247
332,1446169,-170.7,0.0,-1.2,0.0,337.2,0.000000,0.000000,0.00,0.0,0.0,1.2,-0.00,-0.02,1.00,-0.09,0.72,-0.56,55,67,247
333,1446267,-170.7,0.0,-1.2,0.0,337.1,0.000000,0.000000,0.00,0.0,0.0,1.2,-0.00,-0.02,1.00,-0.09,0.79,-0.56,55,67,247
334,1446364,-170.7,0.0,-1.2,0.0,337.0,0.000000,0.000000,0.00,0.0,0.0,1.2,-0.00,-0.02,1.00,-0.16,0.72,-0.63,55,67,247
335,1446461,-170.7,0.0,-1.2,0.0,337.0,0.000000,0.000000,0.00,0.0,0.0,1.2,-0.00,-0.02,1.00,-0.09,0.72,-0.56,55,67,247
336,1446559,-170.7,0.0,-1.2,0.0,336.9,0.000000,0.000000,0.00,0.0,0.0,1.2,-0.00,-0.02,1.00,-0.09,0.79,-0.63,55,67,247
337,1446656,-170.7,0.0,-1.2,0.1,336.9,0.000000,0.000000,0.00,0.0,0.0,1.2,-0.00,-0.02,1.00,-0.09,0.72,-0.63,55,67,247
338,1446753,-170.7,0.0,-1.0,0.1,337.0,0.000000,0.000000,0.00,0.0,0.0,1.2,-0.00,-0.02,1.00,-0.16,0.72,-0.56,55,67,247
339,1446851,-170.7,0.0,-0.9,0.2,337.4,0.000000,0.000000,0.00,0.0,0.0,1.2,-0.00,-0.02,1.00,-0.09,0.72,-0.63,55,67,247
340,1446948,-170.8,0.0,-0.9,0.1,337.6,0.000000,0.000000,0.00,0.0,0.0,1.2,-0.00,-0.02,1.00,-0.16,0.86,-0.56,55,67,247
341,1447045,-170.8,0.0,-0.9,0.2,337.9,0.000000,0.000000,0.00,0.0,0.0,1.2,-0.00,-0.02,1.00,-0.16,0.79,-0.56,55,67,247
342,1447143,-170.7,0.0,-1.0,0.1,338.1,0.000000,0.000000,0.00,0.0,0.0,1.2,-0.00,-0.02,1.00,-0.02,0.72,-0.56,55,67,247
343,1447240,-170.7,0.0,-1.1,0.1,338.2,0.000000,0.000000,0.00,0.0,0.0,1.2,-0.00,-0.02,1.00,-0.09,0.72,-0.56,55,67,247
344,1447337,-170.7,0.0,-1.2,0.1,338.2,0.000000,0.000000,0.00,0.0,0.0,1.2,-0.00,-0.02,1.00,-0.16,0.79,-0.56,55,67,247
345,1447435,-170.7,0.0,-1.2,0.1,338.3,0.000000,0.000000,0.00,0.0,0.0,1.2,-0.00,-0.02,1.00,-0.09,0.79,-0.56,55,67,247
346,1447532,-170.7,0.0,-1.1,0.0,338.3,0.000000,0.000000,0.00,0.0,0.0,1.2,-0.00,-0.02,1.00,-0.09,0.72,-0.63,55,67,247
347,1447629,-170.7,0.0,-1.2,0.1,338.3,0.000000,0.000000,0.00,0.0,0.0,1.2,-0.00,-0.02,1.00,-0.16,0.79,-0.49,55,67,247
348,1447727,-170.7,0.0,-1.1,0.1,338.4,0.000000,0.000000,0.00,0.0,0.0,1.2,-0.00,-0.02,1.00,-0.16,0.72,-0.63,55,67,247
349,1447824,-170.7,0.0,-1.2,0.1,338.4,0.000000,0.000000,0.00,0.0,0.0,1.2,-0.00,-0.02,1.00,-0.09,0.72,-0.56,55,67,247
350,1447921,-170.7,0.0,-1.1,0.0,338.4,0.000000,0.000000,0.00,0.0,0.0,1.2,-0.00,-0.02,1.00,-0.09,0.65,-0.49,55,67,247
351,1448019,-170.7,0.0,-1.2,0.0,338.4,0.000000,0.000000,0.00,0.0,0.0,1.2,0.00,-0.02,1.00,-0.09,0.72,-0.56,55,67,247
352,1448116,-170.7,0.0,-1.1,0.1,338.4,0.000000,0.000000,0.00,0.0,0.0,1.2,-0.00,-0.02,1.00,-0.09,0.72,-0.56,55,67,247
353,1448213,-170.7,0.0,-1.2,0.0,338.4,0.000000,0.000000,0.00,0.0,0.0,1.2,-0.00,-0.02,1.00,-0.16,0.72,-0.56,55,67,247
354,1448311,-170.7,0.0,-1.3,0.0,338.3,0.000000,0.000000,0.00,0.0,0.0,1.2,-0.00,-0.02,1.00,-0.16,0.65,-0.56,55,67,247
355,1448408,-170.7,0.0,-1.3,0.0,338.3,0.000000,0.000000,0.00,0.0,0.0,1.2,-0.00,-0.02,1.00,-0.16,0.72,-0.56,55,67,247
356,1448505,-170.7,0.0,-1.3,0.0,338.2,0.000000,0.000000,0.00,0.0,0.0,1.2,-0.00,-0.02,1.00,-0.09,0.72,-0.49,55,67,247
357,1448603,-170.7,0.0,-1.3,-0.0,338.2,0.000000,0.000000,0.00,0.0,0.0,1.2,0.00,-0.02,1.00,-0.09,0.72,-0.56,55,67,247
358,1448700,-170.7,0.0,-1.2,0.0,338.1,0.000000,0.000000,0.00,0.0,0.0,1.2,-0.00,-0.02,1.00,-0.09,0.72,-0.56,55,67,247
359,1448797,-170.7,0.0,-1.0,0.1,338.3,0.000000,0.000000,0.00,0.0,0.0,1.2,-0.00,-0.02,1.00,-0.09,0.72,-0.56,55,67,247
360,1448895,-170.7,0.0,-1.1,0.1,338.4,0.000000,0.000000,0.00,0.0,0.0,1.2,-0.00,-0.02,1.00,-0.09,0.72,-0.49,55,67,247
361,1448992,-170.7,0.0,-1.1,0.1,338.5,0.000000,0.000000,0.00,0.0,0.0,1.2,-0.00,-0.02,1.00,-0.09,0.65,-0.63,55,67,247
362,1449089,-170.7,0.0,-1.1,0.1,338.6,0.000000,0.000000,0.00,0.0,0.0,1.2,-0.00,-0.02,1.00,-0.09,0.79,-0.49,55,67,247
363,1449187,-170.7,0.0,-1.1,0.1,338.7,0.000000,0.000000,0.00,0.0,0.0,1.2,-0.00,-0.02,1.00,-0.09,0.79,-0.56,55,67,247
364,1449284,-170.7,0.0,-1.2,0.1,338.7,0.000000,0.000000,0.00,0.0,0.0,1.2,-0.00,-0.02,1.00,-0.09,0.79,-0.63,55,67,247
365,1449381,-170.7,0.0,-1.2,0.0,338.7,0.000000,0.000000,0.00,0.0,0.0,1.2,-0.00,-0.02,1.00,-0.16,0.65,-0.56,55,67,247
366,1449479,-170.7,0.0,-1.2,0.0,338.7,0.000000,0.000000,0.00,0.0,0.0,1.2,0.00,-0.02,1.00,-0.09,0.79,-0.56,55,67,247
367,1449576,-170.7,0.0,-1.2,0.0,338.8,0.000000,0.000000,0.00,0.0,0.0,1.2,-0.00,-0.02,1.00,-0.09,0.79,-0.63,55,67,247
368,1449673,-170.7,0.0,-1.1,0.1,338.8,0.000000,0.000000,0.00,0.0,0.0,1.2,-0.00,-0.02,1.00,-0.09,0.72,-0.49,55,67,247
369,1449771,-170.7,0.0,-1.4,-0.0,338.5,0.000000,0.000000,0.00,0.0,0.0,1.2,-0.00,-0.02,1.00,-0.09,0.79,-0.56,55,67,247
370,1449868,-170.7,0.0,-1.4,-0.1,338.4,0.000000,0.000000,0.00,0.0,0.0,1.2,-0.00,-0.02,1.00,-0.09,0.72,-0.56,55,67,247
371,1449965,-170.7,0.0,-1.4,-0.1,338.2,0.000000,0.000000,0.00,0.0,0.0,1.2,0.00,-0.02,1.00,-0.09,0.72,-0.49,55,67,247
372,1450063,-170.7,0.0,-1.4,-0.1,338.1,0.000000,0.000000,0.00,0.0,0.0,1.2,-0.00,-0.02,1.00,-0.16,0.72,-0.56,55,67,247
373,1450160,-170.7,0.0,-1.4,-0.0,338.0,0.000000,0.000000,0.00,0.0,0.0,1.2,-0.00,-0.02,1.00,-0.09,0.72,-0.56,55,67,247
374,1450257,-170.7,0.0,-1.2,0.0,337.9,0.000000,0.000000,0.00,0.0,0.0,1.2,-0.00,-0.02,1.00,-0.09,0.72,-0.56,55,67,247
375,1450355,-170.7,0.0,-1.2,0.0,337.9,0.000000,0.000000,0.00,0.0,0.0,1.2,-0.00,-0.02,1.00,-0.16,0.79,-0.63,55,67,247
376,1450452,-170.7,0.0,-1.2,0.1,337.9,0.000000,0.000000,0.00,0.0,0.0,1.2,-0.00,-0.02,1.00,-0.09,0.72,-0.56,55,67,247
377,1450549,-170.7,0.0,-1.2,0.0,337.9,0.000000,0.000000,0.00,0.0,0.0,1.2,-0.00,-0.02,1.00,-0.16,0.72,-0.56,55,67,247
378,1450647,-170.7,0.0,-1.3,0.0,337.8,0.000000,0.000000,0.00,0.0,0.0,1.2,-0.00,-0.02,1.00,-0.09,0.79,-0.56,55,67,247
379,1450744,-170.7,0.0,-1.3,-0.0,337.7,0.000000,0.000000,0.00,0.0,0.0,1.2,-0.00,-0.02,1.00,-0.09,0.79,-0.56,55,67,247
380,1450841,-170.7,0.0,-1.4,-0.0,337.6,0.000000,0.000000,0.00,0.0,0.0,1.2,-0.00,-0.02,1.00,-0.16,0.79,-0.63,55,67,247
381,1450939,-170.7,0.0,-1.3,-0.0,337.5,0.000000,0.000000,0.00,0.0,0.0,1.2,-0.00,-0.02,1.00,-0.16,0.72,-0.63,55,67,247
382,1451036,-170.7,0.0,-1.3,-0.0,337.3,0.000000,0.000000,0.00,0.0,0.0,1.2,-0.00,-0.02,1.00,-0.16,0.72,-0.56,55,67,247
383,1451133,-170.7,0.0,-1.3,-0.0,337.2,0.000000,0.000000,0.00,0.0,0.0,1.2,-0.00,-0.02,1.00,-0.09,0.72,-0.56,55,67,247
384,1451231,-170.7,0.0,-1.1,0.1,337.3,0.000000,0.000000,0.00,0.0,0.0,1.2,-0.00,-0.02,1.00,-0.09,0.72,-0.56,55,67,247
385,1451328,-170.7,0.0,-1.0,0.1,337.5,0.000000,0.000000,0.00,0.0,0.0,1.2,-0.00,-0.02,1.00,-0.09,0.72,-0.49,55,67,247
386,1451425,-170.7,0.0,-1.1,0.1,337.6,0.000000,0.000000,0.00,0.0,0.0,1.2,-0.00,-0.02,1.00,-0.09,0.72,-0.49,55,67,247
387,1451523,-170.7,0.0,-1.1,0.1,337.7,0.000000,0.000000,0.00,0.0,0.0,1.2,-0.00,-0.02,1.00,-0.16,0.72,-0.49,55,67,247
388,1451620,-170.7,0.0,-1.1,0.1,337.8,0.000000,0.000000,0.00,0.0,0.0,1.2,-0.00,-0.02,1.00,-0.16,0.72,-0.56,55,67,247
389,1451717,-170.7,0.0,-1.3,-0.0,337.8,0.000000,0.000000,0.00,0.0,0.0,1.2,-0.00,-0.02,1.00,-0.09,0.72,-0.56,55,67,247
390,1451815,-170.7,0.0,-1.5,-0.1,337.6,0.000000,0.000000,0.00,0.0,0.0,1.2,-0.00,-0.02,1.00,-0.16,0.72,-0.56,55,67,247
391,1451912,-170.7,0.0,-1.4,-0.1,337.4,0.000000,0.000000,0.00,0.0,0.0,1.2,-0.00,-0.02,1.00,-0.09,0.79,-0.49,55,67,247
392,1452009,-170.7,0.0,-1.4,-0.0,337.2,0.000000,0.000000,0.00,0.0,0.0,1.2,-0.00,-0.02,1.00,-0.09,0.72,-0.56,55,67,247
393,1452107,-170.7,0.0,-1.4,-0.0,337.1,0.000000,0.000000,0.00,0.0,0.0,1.2,-0.00,-0.02,1.00,-0.09,0.72,-0.49,55,67,247
394,1452204,-170.7,0.0,-1.2,0.1,337.1,0.000000,0.000000,0.00,0.0,0.0,1.2,-0.00,-0.02,1.00,-0.09,0.72,-0.56,55,67,247
395,1452301,-170.7,0.0,-1.1,0.1,337.2,0.000000,0.000000,0.00,0.0,0.0,1.2,-0.00,-0.02,1.00,-0.16,0.79,-0.56,55,67,247
396,1452399,-170.7,0.0,-1.1,0.1,337.3,0.000000,0.000000,0.00,0.0,0.0,1.2,-0.00,-0.02,1.00,-0.09,0.72,-0.56,55,67,247
397,1452496,-170.7,0.0,-1.1,0.1,337.4,0.000000,0.000000,0.00,0.0,0.0,1.2,-0.00,-0.02,1.00,-0.16,0.79,-0.56,55,67,247
398,1452593,-170.7,0.0,-1.1,0.1,337.4,0.000000,0.000000,0.00,0.0,0.0,1.2,-0.00,-0.02,1.00,-0.09,0.72,-0.63,55,67,247
399,1452691,-170.7,0.0,-1.1,0.1,337.5,0.000000,0.000000,0.00,0.0,0.0,1.2,-0.00,-0.02,1.00,-0.16,0.79,-0.56,55,67,247
400,1452788,-170.7,0.0,-1.2,-0.0,337.4,0.000000,0.000000,0.00,0.0,0.0,1.2,0.00,-0.02,1.00,-0.16,0.72,-0.49,55,67,247
401,1452885,-170.7,0.0,-1.2,0.0,337.4,0.000000,0.000000,0.00,0.0,0.0,1.2,-0.00,-0.02,1.00,-0.09,0.65,-0.56,55,67,247
402,1452983,-170.7,0.0,-1.2,0.0,337.4,0.000000,0.000000,0.00,0.0,0.0,1.2,-0.00,-0.02,1.00,-0.16,0.72,-0.56,55,67,247
403,1453080,-170.7,0.0,-1.2,0.0,337.4,0.000000,0.000000,0.00,0.0,0.0,1.2,0.00,-0.02,1.00,-0.09,0.72,-0.49,55,67,247
404,1453177,-170.7,0.0,-1.2,0.0,337.4,0.000000,0.000000,0.00,0.0,0.0,1.2,-0.00,-0.02,1.00,-0.09,0.72,-0.56,55,67,247
405,1453275,-170.7,0.0,-1.2,0.0,337.3,0.000000,0.000000,0.00,0.0,0.0,1.2,-0.00,-0.02,1.00,-0.16,0.72,-0.56,55,67,247
406,1453372,-170.7,0.0,-1.2,0.0,337.3,0.000000,0.000000,0.00,0.0,0.0,1.2,-0.00,-0.02,1.00,-0.09,0.72,-0.56,55,67,247
407,1453469,-170.7,0.0,-1.2,0.0,337.3,0.000000,0.000000,0.00,0.0,0.0,1.2,-0.00,-0.02,1.00,-0.09,0.72,-0.56,55,67,247
408,1453567,-170.7,0.0,-1.2,0.0,337.3,0.000000,0.000000,0.00,0.0,0.0,1.2,-0.00,-0.02,1.00,-0.09,0.72,-0.56,55,67,247
409,1453664,-170.7,0.0,-1.2,0.0,337.3,0.000000,0.000000,0.00,0.0,0.0,1.2,-0.00,-0.02,1.00,-0.16,0.72,-0.56,55,67,247
410,1453761,-170.7,0.0,-1.0,0.1,337.4,0.000000,0.000000,0.00,0.0,0.0,1.2,-0.00,-0.02,1.00,-0.09,0.72,-0.63,55,67,247
411,1453859,-170.8,0.0,-1.1,0.1,337.5,0.000000,0.000000,0.00,0.0,0.0,1.2,-0.00,-0.02,1.00,-0.16,0.72,-0.49,55,67,247
412,1453956,-170.8,0.0,-1.0,0.1,337.6,0.000000,0.000000,0.00,0.0,0.0,1.2,-0.00,-0.02,1.00,-0.02,0.72,-0.49,55,67,247
413,1454053,-170.8,0.0,-1.1,0.1,337.7,0.000000,0.000000,0.00,0.0,0.0,1.2,-0.00,-0.02,1.00,-0.16,0.72,-0.56,55,67,247
414,1454151,-170.8,0.0,-1.1,0.1,337.7,0.000000,0.000000,0.00,0.0,0.0,1.2,-0.00,-0.02,1.00,-0.02,0.79,-0.56,55,67,247
415,1454248,-170.7,0.0,-1.2,0.1,337.7,0.000000,0.000000,0.00,0.0,0.0,1.2,-0.00,-0.02,1.00,-0.09,0.72,-0.56,55,67,247
416,1454345,-170.7,0.0,-1.2,0.1,337.7,0.000000,0.000000,0.00,0.0,0.0,1.2,-0.00,-0.02,1.00,-0.09,0.65,-0.56,55,67,247
417,1454443,-170.7,0.0,-1.2,0.1,337.7,0.000000,0.000000,0.00,0.0,0.0,1.2,-0.00,-0.02,1.00,-0.09,0.72,-0.63,55,67,247
418,1454540,-170.7,0.0,-1.2,0.1,337.7,0.000000,0.000000,0.00,0.0,0.0,1.2,-0.00,-0.02,1.00,-0.09,0.72,-0.49,55,67,247
419,1454637,-170.7,0.0,-1.2,0.0,337.8,0.000000,0.000000,0.00,0.0,0.0,1.2,-0.00,-0.02,1.00,-0.02,0.65,-0.63,55,67,247
420,1454735,-170.7,0.0,-1.3,-0.0,337.7,0.000000,0.000000,0.00,0.0,0.0,1.2,-0.00,-0.02,1.00,-0.16,0.65,-0.63,55,67,247
421,1454832,-170.7,0.0,-1.2,0.0,337.7,0.000000,0.000000,0.00,0.0,0.0,1.2,-0.00,-0.02,1.00,-0.09,0.72,-0.63,55,67,247
422,1454929,-170.7,0.0,-1.3,-0.0,337.6,0.000000,0.000000,0.00,0.0,0.0,1.2,0.00,-0.02,1.00,-0.09,0.79,-0.56,55,67,247
423,1455027,-170.7,0.0,-1.2,0.1,337.6,0.000000,0.000000,0.00,0.0,0.0,1.2,-0.00,-0.02,1.00,-0.16,0.72,-0.56,55,67,247
424,1455124,-170.7,0.0,-1.2,-0.0,337.5,0.000000,0.000000,0.00,0.0,0.0,1.2,0.00,-0.02,1.00,-0.16,0.72,-0.56,55,67,247
425,1455221,-170.7,0.0,-1.1,0.0,337.5,0.000000,0.000000,0.00,0.0,0.0,1.2,-0.00,-0.02,1.00,-0.09,0.79,-0.56,55,67,247
426,1455319,-170.7,0.0,-1.2,0.0,337.5,0.000000,0.000000,0.00,0.0,0.0,1.2,-0.00,-0.02,1.00,-0.09,0.72,-0.56,55,67,247
427,1455416,-170.7,0.0,-1.1,0.0,337.5,0.000000,0.000000,0.00,0.0,0.0,1.2,0.00,-0.02,1.00,-0.16,0.65,-0.56,55,67,247
428,1455513,-170.7,0.0,-1.2,0.0,337.5,0.000000,0.000000,0.00,0.0,0.0,1.2,-0.00,-0.02,1.00,-0.02,0.86,-0.56,55,67,247
429,1455611,-170.7,0.0,-1.2,0.0,337.5,0.000000,0.000000,0.00,0.0,0.0,1.2,0.00,-0.02,1.00,-0.09,0.72,-0.49,55,67,247
430,1455708,-170.7,0.0,-1.3,0.0,337.4,0.000000,0.000000,0.00,0.0,0.0,1.2,-0.00,-0.02,1.00,-0.09,0.72,-0.49,55,67,247
431,1455805,-170.7,0.0,-1.3,0.0,337.3,0.000000,0.000000,0.00,0.0,0.0,1.2,-0.00,-0.02,1.00,-0.09,0.72,-0.56,55,67,247
432,1455903,-170.7,0.0,-1.3,-0.0,337.2,0.000000,0.000000,0.00,0.0,0.0,1.2,-0.00,-0.02,1.00,-0.09,0.72,-0.63,55,67,247
433,1456000,-170.7,0.0,-1.2,-0.0,337.2,0.000000,0.000000,0.00,0.0,0.0,1.2,-0.00,-0.02,1.00,-0.23,0.72,-0.56,55,67,247
434,1456097,-170.7,0.0,-1.2,0.0,337.1,0.000000,0.000000,0.00,0.0,0.0,1.2,-0.00,-0.02,1.00,-0.16,0.65,-0.56,55,67,247
435,1456195,-170.7,0.0,-1.1,0.1,337.1,0.000000,0.000000,0.00,0.0,0.0,1.2,-0.00,-0.02,1.00,-0.16,0.72,-0.49,55,67,247
436,1456292,-170.7,0.0,-1.1,0.0,337.2,0.000000,0.000000,0.00,0.0,0.0,1.2,0.00,-0.02,1.00,-0.09,0.72,-0.56,55,67,247
437,1456389,-170.7,0.0,-1.1,0.1,337.2,0.000000,0.000000,0.00,0.0,0.0,1.2,-0.00,-0.02,1.00,-0.09,0.72,-0.56,55,67,247
438,1456487,-170.7,0.0,-1.1,0.1,337.2,0.000000,0.000000,0.00,0.0,0.0,1.2,-0.00,-0.02,1.00,-0.09,0.65,-0.56,55,67,247
439,1456584,-170.7,0.0,-1.2,0.0,337.3,0.000000,0.000000,0.00,0.0,0.0,1.2,0.00,-0.02,1.00,-0.16,0.65,-0.49,55,67,247
440,1456681,-170.7,0.0,-1.3,-0.0,337.2,0.000000,0.000000,0.00,0.0,0.0,1.2,0.00,-0.02,1.00,-0.16,0.58,-0.56,55,67,247
441,1456779,-170.7,0.0,-1.3,-0.0,337.1,0.000000,0.000000,0.00,0.0,0.0,1.2,-0.00,-0.02,1.00,-0.16,0.58,-0.49,55,67,247
442,1456876,-170.7,0.0,-1.3,-0.0,337.0,0.000000,0.000000,0.00,0.0,0.0,1.2,-0.00,-0.02,1.00,-0.16,0.65,-0.56,55,67,247
443,1456973,-170.7,0.0,-1.2,0.0,337.0,0.000000,0.000000,0.00,0.0,0.0,1.2,-0.00,-0.02,1.00,-0.23,0.58,-0.56,55,67,247
444,1457071,-170.7,0.0,-1.2,0.0,336.9,0.000000,0.000000,0.00,0.0,0.0,1.2,-0.00,-0.02,1.00,-0.16,0.58,-0.56,55,67,247
445,1457168,-170.7,0.0,-1.2,0.0,336.8,0.000000,0.000000,0.00,0.0,0.0,1.2,-0.00,-0.02,1.00,-0.16,0.72,-0.56,55,67,247
446,1457265,-170.7,0.0,-1.2,0.0,336.8,0.000000,0.000000,0.00,0.0,0.0,1.2,0.00,-0.02,1.00,-0.16,0.58,-0.56,55,67,247
447,1457363,-170.7,0.0,-1.2,-0.0,336.8,0.000000,0.000000,0.00,0.0,0.0,1.2,0.00,-0.02,1.00,-0.16,0.58,-0.56,55,67,247
448,1457460,-170.7,0.0,-1.2,-0.1,336.8,0.000000,0.000000,0.00,0.0,0.0,1.2,0.00,-0.02,1.00,-0.09,0.65,-0.49,55,67,247
449,1457557,-170.7,0.0,-1.2,0.0,336.8,0.000000,0.000000,0.00,0.0,0.0,1.2,-0.00,-0.02,1.00,-0.16,0.65,-0.63,55,67,247
450,1457655,-170.7,0.0,-1.2,0.1,336.8,0.000000,0.000000,0.00,0.0,0.0,1.2,-0.00,-0.02,1.00,-0.16,0.65,-0.56,55,67,247
451,1457752,-170.7,0.0,-1.1,0.1,336.9,0.000000,0.000000,0.00,0.0,0.0,1.2,-0.00,-0.02,1.00,-0.09,0.65,-0.63,55,67,247
452,1457849,-170.7,0.0,-1.1,0.1,336.9,0.000000,0.000000,0.00,0.0,0.0,1.2,-0.00,-0.02,1.00,-0.16,0.65,-0.56,55,67,247
453,1457947,-170.7,0.0,-1.1,0.0,336.9,0.000000,0.000000,0.00,0.0,0.0,1.2,0.00,-0.02,1.00,-0.09,0.65,-0.56,55,67,247
454,1458044,-170.7,0.0,-1.2,0.0,336.9,0.000000,0.000000,0.00,0.0,0.0,1.2,-0.00,-0.02,1.00,-0.09,0.72,-0.56,55,67,247
455,1458141,-170.7,0.0,-1.2,0.1,336.9,0.000000,0.000000,0.00,0.0,0.0,1.2,-0.00,-0.02,1.00,-0.02,0.72,-0.49,55,67,247
456,1458239,-170.7,0.0,-1.0,0.1,337.2,0.000000,0.000000,0.00,0.0,0.0,1.2,-0.00,-0.02,1.00,-0.16,0.65,-0.56,55,67,247
457,1458336,-170.7,0.0,-1.1,0.1,337.3,0.000000,0.000000,0.00,0.0,0.0,1.2,-0.00,-0.02,1.00,-0.09,0.65,-0.56,55,67,247
458,1458433,-170.7,0.0,-1.1,0.2,337.5,0.000000,0.000000,0.00,0.0,0.0,1.2,-0.00,-0.02,1.00,-0.09,0.72,-0.49,55,67,247
459,1458531,-170.7,0.0,-1.1,0.2,337.6,0.000000,0.000000,0.00,0.0,0.0,1.2,-0.00,-0.02,1.00,-0.09,0.79,-0.56,55,67,247
460,1458628,-170.7,0.0,-1.1,0.1,337.7,0.000000,0.000000,0.00,0.0,0.0,1.2,-0.00,-0.02,1.00,-0.09,0.72,-0.56,55,67,247
461,1458725,-170.7,0.0,-1.2,0.1,337.7,0.000000,0.000000,0.00,0.0,0.0,1.2,-0.00,-0.02,1.00,-0.16,0.79,-0.63,55,67,247
462,1458823,-170.7,0.0,-1.3,0.0,337.7,0.000000,0.000000,0.00,0.0,0.0,1.2,-0.00,-0.02,1.00,-0.09,0.65,-0.56,55,67,247
463,1458920,-170.7,0.0,-1.3,0.1,337.7,0.000000,0.000000,0.00,0.0,0.0,1.2,-0.00,-0.02,1.00,-0.16,0.72,-0.56,55,67,247
464,1459017,-170.7,0.0,-1.3,0.1,337.7,0.000000,0.000000,0.00,0.0,0.0,1.2,-0.00,-0.02,1.00,-0.16,0.72,-0.56,55,67,247
465,1459115,-170.7,0.0,-1.2,0.0,337.6,0.000000,0.000000,0.00,0.0,0.0,1.2,-0.00,-0.02,1.00,-0.09,0.79,-0.56,55,67,247
466,1459212,-170.7,0.0,-1.3,0.0,337.6,0.000000,0.000000,0.00,0.0,0.0,1.2,-0.00,-0.02,1.00,-0.09,0.72,-0.56,55,67,247
467,1459309,-170.8,0.0,-1.3,0.1,337.5,0.000000,0.000000,0.00,0.0,0.0,1.2,-0.00,-0.02,1.00,-0.09,0.72,-0.63,55,67,247
468,1459407,-170.7,0.0,-1.3,-0.0,337.5,0.000000,0.000000,0.00,0.0,0.0,1.2,0.00,-0.02,1.00,-0.16,0.65,-0.49,55,67,247
469,1459504,-170.7,0.0,-1.2,-0.0,337.5,0.000000,0.000000,0.00,0.0,0.0,1.2,0.00,-0.02,1.00,-0.02,0.72,-0.56,55,67,247
470,1459601,-170.7,0.0,-1.2,-0.1,337.4,0.000000,0.000000,0.00,0.0,0.0,1.2,0.00,-0.02,1.00,-0.09,0.65,-0.63,55,67,247
471,1459699,-170.7,0.0,-1.1,0.0,337.5,0.000000,0.000000,0.00,0.0,0.0,1.2,0.00,-0.02,1.00,-0.09,0.72,-0.63,55,67,247
472,1459796,-170.7,0.0,-1.1,0.1,337.5,0.000000,0.000000,0.00,0.0,0.0,1.2,-0.00,-0.02,1.00,-0.09,0.65,-0.56,55,67,247
473,1459894,-170.7,0.0,-1.1,0.0,337.5,0.000000,0.000000,0.00,0.0,0.0,1.2,0.00,-0.02,1.00,-0.09,0.72,-0.56,55,67,247
474,1459991,-170.7,0.0,-1.1,0.0,337.6,0.000000,0.000000,0.00,0.0,0.0,1.2,-0.00,-0.02,1.00,-0.16,0.72,-0.56,55,67,247
475,1460088,-170.7,0.0,-1.1,-0.0,337.6,0.000000,0.000000,0.00,0.0,0.0,1.2,0.00,-0.02,1.00,-0.02,0.65,-0.63,55,67,247
476,1460186,-170.7,0.0,-1.3,-0.1,337.6,0.000000,0.000000,0.00,0.0,0.0,1.2,0.00,-0.02,1.00,-0.09,0.72,-0.63,55,67,247
477,1460283,-170.7,0.0,-1.3,-0.0,337.5,0.000000,0.000000,0.00,0.0,0.0,1.2,-0.00,-0.02,1.00,-0.09,0.72,-0.56,55,67,247
478,1460380,-170.7,0.0,-1.3,-0.1,337.4,0.000000,0.000000,0.00,0.0,0.0,1.2,0.00,-0.02,1.00,-0.02,0.72,-0.56,55,67,247
479,1460478,-170.7,0.0,-1.3,-0.0,337.3,0.000000,0.000000,0.00,0.0,0.0,1.2,-0.00,-0.02,1.00,-0.09,0.72,-0.56,55,67,247
480,1460575,-170.7,0.0,-1.2,-0.1,337.3,0.000000,0.000000,0.00,0.0,0.0,1.2,0.00,-0.02,1.00,-0.09,0.72,-0.63,55,67,247
481,1460672,-170.7,0.0,-1.3,-0.0,337.2,0.000000,0.000000,0.00,0.0,0.0,1.2,0.00,-0.02,1.00,-0.09,0.79,-0.56,55,67,247
482,1460770,-170.7,0.0,-1.3,-0.0,337.1,0.000000,0.000000,0.00,0.0,0.0,1.2,0.00,-0.02,1.00,-0.09,0.72,-0.49,55,67,247
483,1460867,-170.7,0.0,-1.3,-0.0,337.1,0.000000,0.000000,0.00,0.0,0.0,1.2,-0.00,-0.02,1.00,-0.16,0.72,-0.56,55,67,247
484,1460964,-170.7,0.0,-1.2,-0.0,337.0,0.000000,0.000000,0.00,0.0,0.0,1.2,0.00,-0.02,1.00,-0.09,0.65,-0.49,55,67,247
485,1461062,-170.7,0.0,-1.2,-0.0,337.0,0.000000,0.000000,0.00,0.0,0.0,1.2,-0.00,-0.02,1.00,-0.09,0.72,-0.63,55,67,247
486,1461159,-170.7,0.0,-1.2,-0.1,336.9,0.000000,0.000000,0.00,0.0,0.0,1.2,0.00,-0.02,1.00,-0.09,0.72,-0.56,55,67,247
487,1461256,-170.7,0.0,-0.9,0.1,337.2,0.000000,0.000000,0.00,0.0,0.0,1.2,0.00,-0.02,1.00,-0.09,0.79,-0.56,55,67,247
488,1461354,-170.7,0.0,-1.0,0.2,337.5,0.000000,0.000000,0.00,0.0,0.0,1.2,-0.00,-0.02,1.00,-0.16,0.72,-0.56,55,67,247
489,1461451,-170.7,0.0,-0.9,0.5,337.7,0.000000,0.000000,0.00,0.0,0.0,1.2,-0.02,-0.02,0.97,-0.16,0.72,-0.63,55,67,247
490,1461548,-170.7,0.0,-1.0,0.6,337.8,0.000000,0.000000,0.00,0.0,0.0,1.2,-0.00,-0.05,1.01,-2.19,-2.71,-2.17,55,67,247
491,1461646,-170.7,0.0,-1.7,0.4,337.7,0.000000,0.000000,0.00,0.0,0.0,1.2,-0.00,-0.10,0.99,0.19,-0.26,-8.75,55,67,247
492,1461743,-170.7,0.0,-1.5,0.1,337.6,0.000000,0.000000,0.00,0.0,0.0,1.2,0.02,0.03,1.00,1.10,3.17,-11.83,55,67,247
493,1461840,-170.7,0.0,-0.9,0.4,337.5,0.000000,0.000000,0.00,0.0,0.0,1.2,-0.05,0.07,0.99,-0.65,1.14,-4.13,55,67,247
494,1461938,-170.7,0.0,-1.1,0.1,337.3,0.000000,0.000000,0.00,0.0,0.0,1.2,-0.00,-0.01,0.99,0.89,1.07,-0.56,55,67,247
495,1462035,-170.7,0.0,-1.2,0.0,337.1,0.000000,0.000000,0.00,0.0,0.0,1.2,-0.00,-0.01,1.00,0.47,0.44,-0.28,55,67,247
496,1462132,-170.7,0.0,-1.3,-0.1,337.0,0.000000,0.000000,0.00,0.0,0.0,1.2,-0.00,-0.02,0.99,0.61,1.42,-0.35,55,67,247
497,1462230,-170.7,0.0,-1.1,0.1,337.0,0.000000,0.000000,0.00,0.0,0.0,1.2,-0.01,-0.02,1.01,-0.79,2.40,0.56,55,67,247
498,1462327,-170.7,0.0,-1.1,0.7,337.0,0.000000,0.000000,0.00,0.0,0.0,1.2,-0.04,-0.01,1.02,-0.23,0.51,2.38,55,67,247
499,1462424,-170.7,0.0,-0.5,0.7,337.0,0.000000,0.000000,0.00,0.0,0.0,1.2,-0.01,0.05,0.99,-0.72,0.37,8.47,55,67,247
500,1462522,-170.7,0.0,-0.0,0.3,337.1,0.000000,0.000000,0.00,0.0,0.0,1.2,0.01,0.07,1.02,-0.44,0.93,21.00,55,67,247
501,1462619,-170.7,0.0,-0.5,0.0,337.3,0.000000,0.000000,0.00,0.0,0.0,1.2,0.00,-0.03,0.99,-0.23,1.07,30.94,55,67,247
502,1462716,-170.7,0.0,-0.6,-0.5,337.5,0.000000,0.000000,0.00,0.0,0.0,1.2,0.02,-0.01,0.97,-0.58,-0.12,33.67,55,67,247
503,1462814,-170.7,0.0,-0.9,-1.0,337.8,0.000000,0.000000,0.00,0.0,0.0,1.2,0.05,-0.01,1.00,-0.72,0.72,34.79,55,67,247
504,1462911,-170.7,0.0,-1.0,-1.6,338.0,0.000000,0.000000,0.00,0.0,0.0,1.2,0.05,-0.02,1.01,-0.86,0.09,34.30,55,67,247
505,1463008,-170.7,0.0,-0.6,-2.0,338.2,0.000000,0.000000,0.00,0.0,0.0,1.2,0.05,0.03,1.00,-1.42,-0.05,33.95,55,67,247
506,1463106,-170.7,0.0,-0.2,-2.5,338.6,0.000000,0.000000,0.00,0.0,0.0,1.2,0.09,0.04,1.00,-1.77,-0.47,41.86,55,67,247
507,1463203,-170.7,0.0,-0.1,-3.1,338.9,0.000000,0.000000,0.00,0.0,0.0,1.2,0.13,0.02,1.00,-1.70,-0.54,50.19,55,67,247
508,1463300,-170.7,0.0,0.0,-3.8,339.4,0.000000,0.000000,0.00,0.0,0.0,1.2,0.14,0.04,1.00,-1.98,-0.75,59.36,55,67,247
509,1463398,-170.7,0.0,0.0,-4.4,339.9,0.000000,0.000000,0.00,0.0,0.0,1.2,0.10,0.02,0.99,-1.49,-0.05,68.39,55,67,247
510,1463495,-170.7,0.0,-0.5,-4.5,340.4,0.000000,0.000000,0.00,0.0,0.0,1.2,0.07,-0.02,0.99,-1.00,1.07,74.13,55,67,247
511,1463592,-170.7,0.0,-1.1,-4.1,341.0,0.000000,0.000000,0.00,0.0,0.0,1.2,0.01,-0.06,1.01,-1.07,1.28,74.27,55,67,247
