count,timestamp,vane,wing,roll,pitch,yaw,lat,lon,speed,drag,lift,thrust,acc_x,acc_y,acc_z,gyro_x,gyro_y,gyro_z,hours,min,sec
0,1245708,-170.7,0.0,-3.8,5.6,257.7,0.000000,0.000000,0.00,0.0,0.0,1.2,-0.10,-0.09,1.04,-4.08,3.45,-3.08,55,67,247
1,1245805,-170.7,0.0,-3.8,5.6,257.6,0.000000,0.000000,0.00,0.0,0.0,1.2,-0.11,-0.08,1.03,-2.26,1.91,-3.43,55,67,247
2,1245903,-170.7,0.0,-3.9,5.7,257.6,0.000000,0.000000,0.00,0.0,0.0,1.2,-0.12,-0.07,1.03,-0.58,0.09,-3.43,55,67,247
3,1246000,-170.7,0.0,-3.9,5.8,257.6,0.000000,0.000000,0.00,0.0,0.0,1.2,-0.12,-0.07,1.02,0.33,-1.59,-3.15,55,67,247
4,1246097,-170.7,0.0,-3.8,5.8,257.6,0.000000,0.000000,0.00,0.0,0.0,1.2,-0.12,-0.06,1.01,0.68,-2.43,-2.38,55,67,247
5,1246195,-170.7,0.0,-3.8,5.9,257.5,0.000000,0.000000,0.00,0.0,0.0,1.2,-0.12,-0.05,1.01,0.89,-2.71,-1.61,55,67,247
6,1246292,-170.7,0.0,-3.7,6.0,257.6,0.000000,0.000000,0.00,0.0,0.0,1.2,-0.12,-0.05,1.00,1.45,-2.71,-0.63,55,67,247
7,1246389,-170.7,0.0,-3.6,6.0,257.6,0.000000,0.000000,0.00,0.0,0.0,1.2,-0.11,-0.05,0.99,1.38,-2.36,0.28,55,67,247
8,1246487,-170.7,0.0,-3.6,6.0,257.6,0.000000,0.000000,0.00,0.0,0.0,1.2,-0.10,-0.06,0.99,0.82,-1.73,0.98,55,67,247
9,1246584,-170.7,0.0,-3.6,6.0,257.6,0.000000,0.000000,0.00,0.0,0.0,1.2,-0.09,-0.07,0.99,-0.16,-1.59,1.12,55,67,247
10,1246681,-170.7,0.0,-3.7,5.9,257.6,0.000000,0.000000,0.00,0.0,0.0,1.2,-0.09,-0.07,1.01,-0.93,-3.48,0.49,55,67,247
11,1246779,-170.7,0.0,-3.7,5.7,257.6,0.000000,0.000000,0.00,0.0,0.0,1.2,-0.09,-0.06,1.03,-1.42,-9.22,-0.63,55,67,247
12,1246876,-170.7,0.0,-3.7,5.6,257.6,0.000000,0.000000,0.00,0.0,0.0,1.2,-0.09,-0.06,1.02,-1.49,-15.10,-0.84,55,67,247
13,1246973,-170.7,0.0,-3.7,5.4,257.6,0.000000,0.000000,0.00,0.0,0.0,1.2,-0.08,-0.06,1.00,-1.14,-17.76,-0.49,55,67,247
14,1247071,-170.7,0.0,-3.7,5.1,257.7,0.000000,0.000000,0.00,0.0,0.0,1.2,-0.08,-0.07,0.99,0.12,-17.90,-1.12,55,67,247
15,1247168,-170.7,0.0,-3.7,4.9,257.7,0.000000,0.000000,0.00,0.0,0.0,1.2,-0.08,-0.07,1.00,1.66,-17.76,-2.03,55,67,247
16,1247266,-170.7,0.0,-3.7,4.7,257.7,0.000000,0.000000,0.00,0.0,0.0,1.2,-0.07,-0.07,1.00,2.78,-19.79,-2.80,55,67,247
17,1247363,-170.7,0.0,-3.7,4.5,257.7,0.000000,0.000000,0.00,0.0,0.0,1.2,-0.07,-0.07,1.00,2.71,-21.82,-3.43,55,67,247
18,1247460,-170.7,0.0,-3.7,4.2,257.7,0.000000,0.000000,0.00,0.0,0.0,1.2,-0.06,-0.07,0.99,2.22,-22.45,-3.85,55,67,247
19,1247558,-170.7,0.0,-3.8,3.9,257.7,0.000000,0.000000,0.00,0.0,0.0,1.2,-0.05,-0.07,0.99,2.50,-21.89,-4.76,55,67,247
20,1247655,-170.7,0.0,-3.8,3.7,257.7,0.000000,0.000000,0.00,0.0,0.0,1.2,-0.06,-0.07,0.98,2.85,-20.35,-5.81,55,67,247
21,1247752,-170.7,0.0,-3.8,3.5,257.7,0.000000,0.000000,0.00,0.0,0.0,1.2,-0.06,-0.06,0.97,2.92,-17.48,-6.30,55,67,247
22,1247850,-170.7,0.0,-3.8,3.5,257.7,0.000000,0.000000,0.00,0.0,0.0,1.2,-0.07,-0.06,0.97,2.85,-14.12,-6.23,55,67,247
23,1247947,-170.7,0.0,-3.7,3.4,257.6,0.000000,0.000000,0.00,0.0,0.0,1.2,-0.07,-0.05,0.97,2.29,-9.92,-5.81,55,67,247
24,1248044,-170.7,0.0,-3.6,3.5,257.6,0.000000,0.000000,0.00,0.0,0.0,1.2,-0.08,-0.05,0.97,1.66,-5.16,-5.04,55,67,247
25,1248142,-170.7,0.0,-3.6,3.6,257.6,0.000000,0.000000,0.00,0.0,0.0,1.2,-0.09,-0.05,0.98,1.52,-0.82,-3.92,55,67,247
26,1248239,-170.7,0.0,-3.5,3.8,257.6,0.000000,0.000000,0.00,0.0,0.0,1.2,-0.09,-0.04,0.98,1.87,3.45,-2.80,55,67,247
27,1248336,-170.7,0.0,-3.4,3.9,257.6,0.000000,0.000000,0.00,0.0,0.0,1.2,-0.08,-0.04,0.98,2.43,7.86,-1.89,55,67,247
28,1248434,-170.7,0.0,-3.3,4.1,257.6,0.000000,0.000000,0.00,0.0,0.0,1.2,-0.08,-0.04,0.98,2.78,12.34,-1.40,55,67,247
29,1248531,-170.7,0.0,-3.2,4.3,257.6,0.000000,0.000000,0.00,0.0,0.0,1.2,-0.08,-0.04,0.97,2.71,16.33,-1.05,55,67,247
30,1248628,-170.7,0.0,-3.1,4.5,257.5,0.000000,0.000000,0.00,0.0,0.0,1.2,-0.09,-0.04,0.96,2.08,21.37,-0.07,55,67,247
31,1248726,-170.7,0.0,-3.0,4.9,257.5,0.000000,0.000000,0.00,0.0,0.0,1.2,-0.09,-0.04,0.93,0.82,29.28,1.40,55,67,247
32,1248823,-170.7,0.0,-3.0,5.2,257.5,0.000000,0.000000,0.00,0.0,0.0,1.2,-0.08,-0.06,0.93,-0.09,40.34,2.31,55,67,247
33,1248920,-170.7,0.0,-3.1,5.7,257.5,0.000000,0.000000,0.00,0.0,0.0,1.2,-0.08,-0.07,0.93,-0.51,52.17,2.31,55,67,247
34,1249018,-170.7,0.0,-3.2,6.2,257.4,0.000000,0.000000,0.00,0.0,0.0,1.2,-0.10,-0.07,0.94,-0.44,63.16,1.89,55,67,247
35,1249115,-170.7,0.0,-3.2,6.9,257.4,0.000000,0.000000,0.00,0.0,0.0,1.2,-0.11,-0.07,0.94,-0.02,72.05,1.26,55,67,247
36,1249212,-170.7,0.0,-3.2,7.6,257.3,0.000000,0.000000,0.00,0.0,0.0,1.2,-0.13,-0.06,0.97,-0.09,78.77,0.70,55,67,247
37,1249310,-170.7,0.0,-3.2,8.4,257.2,0.000000,0.000000,0.00,0.0,0.0,1.2,-0.16,-0.04,0.99,-0.30,81.08,1.19,55,67,247
38,1249407,-170.7,0.0,-3.1,9.2,257.1,0.000000,0.000000,0.00,0.0,0.0,1.2,-0.18,-0.03,1.02,-0.65,80.03,2.66,55,67,247
39,1249504,-170.7,0.0,-3.0,10.0,257.1,0.000000,0.000000,0.00,0.0,0.0,1.2,-0.19,-0.03,1.04,-0.86,75.27,4.20,55,67,247
40,1249602,-170.7,0.0,-2.9,10.6,257.1,0.000000,0.000000,0.00,0.0,0.0,1.2,-0.20,-0.03,1.06,-1.14,67.78,4.97,55,67,247
41,1249699,-170.7,0.0,-2.8,11.1,257.0,0.000000,0.000000,0.00,0.0,0.0,1.2,-0.20,-0.04,1.10,-0.72,54.97,5.95,55,67,247
42,1249796,-170.7,0.0,-2.7,11.3,257.0,0.000000,0.000000,0.00,0.0,0.0,1.2,-0.18,-0.05,1.12,0.26,35.86,6.72,55,67,247
43,1249894,-170.7,0.0,-2.8,11.3,257.0,0.000000,0.000000,0.00,0.0,0.0,1.2,-0.16,-0.08,1.08,1.31,19.13,5.88,55,67,247
44,1249991,-170.7,0.0,-2.9,11.2,257.0,0.000000,0.000000,0.00,0.0,0.0,1.2,-0.16,-0.09,1.03,1.59,9.26,3.78,55,67,247
45,1250088,-170.7,0.0,-3.1,11.1,257.0,0.000000,0.000000,0.00,0.0,0.0,1.2,-0.17,-0.10,0.99,2.57,4.99,2.24,55,67,247
46,1250186,-170.7,0.0,-3.2,11.1,257.0,0.000000,0.000000,0.00,0.0,0.0,1.2,-0.17,-0.10,0.95,4.32,4.78,0.84,55,67,247
47,1250283,-170.7,0.0,-3.4,11.1,256.9,0.000000,0.000000,0.00,0.0,0.0,1.2,-0.18,-0.09,0.92,5.93,7.16,-0.14,55,67,247
48,1250380,-170.7,0.0,-3.5,11.3,256.9,0.000000,0.000000,0.00,0.0,0.0,1.2,-0.19,-0.09,0.90,6.70,11.71,-0.84,55,67,247
49,1250478,-170.7,0.0,-3.6,11.6,256.9,0.000000,0.000000,0.00,0.0,0.0,1.2,-0.20,-0.08,0.89,6.42,18.15,-1.47,55,67,247
50,1250575,-170.7,0.0,-3.6,12.0,256.8,0.000000,0.000000,0.00,0.0,0.0,1.2,-0.22,-0.07,0.89,5.09,25.71,-1.40,55,67,247
51,1250673,-170.7,0.0,-3.7,12.5,256.8,0.000000,0.000000,0.00,0.0,0.0,1.2,-0.22,-0.06,0.89,3.55,33.69,-0.91,55,67,247
52,1250770,-170.7,0.0,-3.7,13.0,256.8,0.000000,0.000000,0.00,0.0,0.0,1.2,-0.23,-0.06,0.90,2.22,43.28,-0.63,55,67,247
53,1250867,-170.7,0.0,-3.7,13.6,256.8,0.000000,0.000000,0.00,0.0,0.0,1.2,-0.23,-0.05,0.92,0.75,53.64,-0.56,55,67,247
54,1250965,-170.7,0.0,-3.6,14.2,256.7,0.000000,0.000000,0.00,0.0,0.0,1.2,-0.24,-0.04,0.96,-0.51,62.25,0.07,55,67,247
55,1251062,-170.7,0.0,-3.5,14.8,256.7,0.000000,0.000000,0.00,0.0,0.0,1.2,-0.24,-0.04,1.03,-1.00,65.96,1.89,55,67,247
56,1251159,-170.7,0.0,-3.4,15.1,256.7,0.000000,0.000000,0.00,0.0,0.0,1.2,-0.25,-0.04,1.15,-0.16,56.44,3.50,55,67,247
57,1251257,-170.7,0.0,-3.3,15.2,256.7,0.000000,0.000000,0.00,0.0,0.0,1.2,-0.23,-0.06,1.18,0.05,34.60,3.01,55,67,247
58,1251354,-170.7,0.0,-3.3,15.1,256.8,0.000000,0.000000,0.00,0.0,0.0,1.2,-0.23,-0.07,1.12,-1.42,17.38,2.73,55,67,247
59,1251451,-170.7,0.0,-3.3,14.9,256.8,0.000000,0.000000,0.00,0.0,0.0,1.2,-0.25,-0.07,1.09,-1.91,7.93,2.59,55,67,247
60,1251549,-170.7,0.0,-3.4,14.9,256.8,0.000000,0.000000,0.00,0.0,0.0,1.2,-0.27,-0.06,1.05,-0.30,0.93,2.31,55,67,247
61,1251646,-170.7,0.0,-3.4,14.9,256.9,0.000000,0.000000,0.00,0.0,0.0,1.2,-0.28,-0.07,1.01,1.80,-0.96,2.59,55,67,247
62,1251743,-170.7,0.0,-3.4,15.0,256.9,0.000000,0.000000,0.00,0.0,0.0,1.2,-0.27,-0.06,1.00,4.39,0.16,3.50,55,67,247
63,1251841,-170.7,0.0,-3.3,15.1,257.0,0.000000,0.000000,0.00,0.0,0.0,1.2,-0.27,-0.06,0.98,7.54,1.63,4.83,55,67,247
64,1251938,-170.7,0.0,-3.3,15.2,257.1,0.000000,0.000000,0.00,0.0,0.0,1.2,-0.26,-0.07,0.94,9.29,5.20,5.53,55,67,247
65,1252035,-170.7,0.0,-3.4,15.4,257.2,0.000000,0.000000,0.00,0.0,0.0,1.2,-0.26,-0.08,0.92,9.36,11.15,5.46,55,67,247
66,1252133,-170.7,0.0,-3.5,15.7,257.3,0.000000,0.000000,0.00,0.0,0.0,1.2,-0.26,-0.09,0.92,8.66,17.24,4.97,55,67,247
67,1252230,-170.7,0.0,-3.7,16.0,257.3,0.000000,0.000000,0.00,0.0,0.0,1.2,-0.26,-0.10,0.92,7.82,22.14,3.92,55,67,247
68,1252327,-170.7,0.0,-3.8,16.3,257.3,0.000000,0.000000,0.00,0.0,0.0,1.2,-0.26,-0.09,0.92,7.89,26.76,2.59,55,67,247
69,1252425,-170.7,0.0,-3.8,16.6,257.4,0.000000,0.000000,0.00,0.0,0.0,1.2,-0.27,-0.07,0.93,8.80,31.10,0.84,55,67,247
70,1252522,-170.7,0.0,-3.7,17.0,257.4,0.000000,0.000000,0.00,0.0,0.0,1.2,-0.28,-0.05,0.95,9.92,34.04,-0.63,55,67,247
71,1252619,-170.7,0.0,-3.5,17.3,257.5,0.000000,0.000000,0.00,0.0,0.0,1.2,-0.30,-0.03,0.96,10.34,35.30,-1.19,55,67,247
72,1252717,-170.7,0.0,-3.2,17.7,257.6,0.000000,0.000000,0.00,0.0,0.0,1.2,-0.30,-0.01,0.97,10.48,36.35,-0.98,55,67,247
73,1252814,-170.7,0.0,-2.8,18.1,257.7,0.000000,0.000000,0.00,0.0,0.0,1.2,-0.31,0.00,0.97,10.83,37.12,-0.28,55,67,247
74,1252911,-170.7,0.0,-2.5,18.5,257.8,0.000000,0.000000,0.00,0.0,0.0,1.2,-0.31,0.01,0.97,11.32,36.84,0.28,55,67,247
75,1253009,-170.7,0.0,-2.1,18.9,258.0,0.000000,0.000000,0.00,0.0,0.0,1.2,-0.32,0.02,0.96,12.02,36.49,0.84,55,67,247
76,1253106,-170.7,0.0,-1.7,19.3,258.1,0.000000,0.000000,0.00,0.0,0.0,1.2,-0.33,0.02,0.94,12.65,36.84,1.82,55,67,247
77,1253203,-170.7,0.0,-1.4,19.7,258.3,0.000000,0.000000,0.00,0.0,0.0,1.2,-0.33,0.01,0.92,12.86,38.45,2.66,55,67,247
78,1253301,-170.7,0.0,-1.1,20.2,258.4,0.000000,0.000000,0.00,0.0,0.0,1.2,-0.33,-0.00,0.91,12.44,41.32,2.80,55,67,247
79,1253398,-170.7,0.0,-0.9,20.7,258.6,0.000000,0.000000,0.00,0.0,0.0,1.2,-0.34,0.00,0.92,11.81,43.98,2.45,55,67,247
80,1253495,-170.7,0.0,-0.7,21.0,258.7,0.000000,0.000000,0.00,0.0,0.0,1.2,-0.32,0.00,0.92,12.23,41.81,0.56,55,67,247
81,1253593,-170.7,0.0,-0.6,21.4,258.8,0.000000,0.000000,0.00,0.0,0.0,1.2,-0.34,0.00,0.90,10.34,38.24,0.21,55,67,247
82,1253690,-170.7,0.0,-0.4,21.8,258.9,0.000000,0.000000,0.00,0.0,0.0,1.2,-0.34,0.00,0.90,7.05,36.00,0.49,55,67,247
83,1253787,-170.7,0.0,-0.4,22.1,259.0,0.000000,0.000000,0.00,0.0,0.0,1.2,-0.35,0.00,0.88,3.27,33.20,0.35,55,67,247
84,1253885,-170.7,0.0,-0.3,22.6,259.2,0.000000,0.000000,0.00,0.0,0.0,1.2,-0.36,-0.00,0.86,-0.93,33.69,0.14,55,67,247
85,1253982,-170.7,0.0,-0.4,23.0,259.3,0.000000,0.000000,0.00,0.0,0.0,1.2,-0.36,-0.00,0.86,-4.36,36.98,0.49,55,67,247
86,1254080,-170.7,0.0,-0.5,23.4,259.5,0.000000,0.000000,0.00,0.0,0.0,1.2,-0.36,-0.02,0.87,-7.09,39.71,0.07,55,67,247
87,1254177,-170.7,0.0,-0.7,23.8,259.5,0.000000,0.000000,0.00,0.0,0.0,1.2,-0.36,-0.02,0.87,-9.12,41.95,-0.77,55,67,247
88,1254274,-170.7,0.0,-0.9,24.1,259.6,0.000000,0.000000,0.00,0.0,0.0,1.2,-0.36,-0.02,0.87,-11.43,44.12,-1.19,55,67,247
89,1254372,-170.7,0.0,-1.1,24.6,259.6,0.000000,0.000000,0.00,0.0,0.0,1.2,-0.37,-0.03,0.86,-13.74,45.45,-1.33,55,67,247
90,1254469,-170.7,0.0,-1.5,25.1,259.7,0.000000,0.000000,0.00,0.0,0.0,1.2,-0.39,-0.04,0.85,-15.35,47.76,-1.82,55,67,247
91,1254566,-170.7,0.0,-1.8,25.6,259.6,0.000000,0.000000,0.00,0.0,0.0,1.2,-0.41,-0.06,0.87,-16.19,50.49,-3.36,55,67,247
92,1254664,-170.7,0.0,-2.2,26.2,259.6,0.000000,0.000000,0.00,0.0,0.0,1.2,-0.44,-0.06,0.89,-18.08,51.19,-3.92,55,67,247
93,1254761,-170.7,0.0,-2.5,26.6,259.5,0.000000,0.000000,0.00,0.0,0.0,1.2,-0.46,-0.05,0.94,-20.81,46.78,-3.57,55,67,247
94,1254858,-170.7,0.0,-2.8,26.9,259.5,0.000000,0.000000,0.00,0.0,0.0,1.2,-0.46,-0.04,0.98,-22.91,36.56,-3.15,55,67,247
95,1254956,-170.7,0.0,-3.0,27.1,259.6,0.000000,0.000000,0.00,0.0,0.0,1.2,-0.47,-0.04,1.02,-23.82,25.71,-2.59,55,67,247
96,1255053,-170.7,0.0,-3.1,26.9,259.7,0.000000,0.000000,0.00,0.0,0.0,1.2,-0.47,-0.03,1.10,-22.84,8.49,-0.91,55,67,247
97,1255150,-170.7,0.0,-3.1,26.3,259.8,0.000000,0.000000,0.00,0.0,0.0,1.2,-0.47,-0.04,1.18,-20.25,-17.41,1.82,55,67,247
98,1255248,-170.7,0.0,-3.2,25.5,260.0,0.000000,0.000000,0.00,0.0,0.0,1.2,-0.46,-0.06,1.20,-17.17,-48.56,4.27,55,67,247
99,1255345,-170.7,0.0,-3.6,24.4,260.1,0.000000,0.000000,0.00,0.0,0.0,1.2,-0.44,-0.12,1.19,-13.11,-76.56,4.83,55,67,247
100,1255442,-170.7,0.0,-4.0,23.2,260.2,0.000000,0.000000,0.00,0.0,0.0,1.2,-0.40,-0.16,1.17,-11.15,-99.80,1.33,55,67,247
101,1255540,-170.7,0.0,-4.5,21.7,260.3,0.000000,0.000000,0.00,0.0,0.0,1.2,-0.36,-0.16,1.14,-8.42,-118.91,-4.20,55,67,247
102,1255637,-170.7,0.0,-4.9,20.3,260.4,0.000000,0.000000,0.00,0.0,0.0,1.2,-0.37,-0.13,1.09,-3.38,-133.54,-9.52,55,67,247
103,1255734,-170.7,0.0,-4.9,19.1,260.6,0.000000,0.000000,0.00,0.0,0.0,1.2,-0.40,-0.08,1.03,3.20,-146.21,-13.16,55,67,247
104,1255832,-170.7,0.0,-4.8,18.1,260.7,0.000000,0.000000,0.00,0.0,0.0,1.2,-0.42,-0.05,0.93,9.99,-151.25,-14.77,55,67,247
105,1255929,-170.7,0.0,-4.5,17.1,260.8,0.000000,0.000000,0.00,0.0,0.0,1.2,-0.41,-0.03,0.86,17.55,-148.94,-15.61,55,67,247
106,1256026,-170.7,0.0,-4.2,16.2,261.0,0.000000,0.000000,0.00,0.0,0.0,1.2,-0.38,-0.01,0.80,23.99,-142.15,-16.03,55,67,247
107,1256124,-170.7,0.0,-3.8,15.5,261.1,0.000000,0.000000,0.00,0.0,0.0,1.2,-0.37,0.02,0.78,27.98,-131.93,-16.66,55,67,247
108,1256221,-170.7,0.0,-3.2,14.7,261.2,0.000000,0.000000,0.00,0.0,0.0,1.2,-0.35,0.05,0.76,30.15,-122.97,-15.75,55,67,247
109,1256318,-170.7,0.0,-2.7,14.1,261.3,0.000000,0.000000,0.00,0.0,0.0,1.2,-0.31,0.06,0.76,30.92,-111.70,-13.30,55,67,247
110,1256416,-170.7,0.0,-2.1,13.5,261.4,0.000000,0.000000,0.00,0.0,0.0,1.2,-0.26,0.06,0.80,29.52,-101.06,-10.57,55,67,247
111,1256513,-170.7,0.0,-1.4,12.8,261.6,0.000000,0.000000,0.00,0.0,0.0,1.2,-0.21,0.05,0.86,25.04,-96.86,-7.56,55,67,247
112,1256610,-170.7,0.0,-1.0,11.9,261.9,0.000000,0.000000,0.00,0.0,0.0,1.2,-0.16,0.03,0.90,18.32,-97.07,-5.18,55,67,247
113,1256708,-170.7,0.0,-0.8,10.9,262.1,0.000000,0.000000,0.00,0.0,0.0,1.2,-0.14,-0.01,0.92,11.46,-99.87,-4.27,55,67,247
114,1256805,-170.7,0.0,-0.8,9.8,262.4,0.000000,0.000000,0.00,0.0,0.0,1.2,-0.13,-0.03,0.94,5.16,-105.68,-5.88,55,67,247
115,1256902,-170.7,0.0,-0.9,8.7,262.4,0.000000,0.000000,0.00,0.0,0.0,1.2,-0.12,-0.04,0.94,0.89,-111.70,-8.54,55,67,247
116,1257000,-170.7,0.0,-1.1,7.6,262.5,0.000000,0.000000,0.00,0.0,0.0,1.2,-0.13,-0.05,0.92,0.96,-116.39,-11.13,55,67,247
117,1257097,-170.7,0.0,-1.2,6.6,262.5,0.000000,0.000000,0.00,0.0,0.0,1.2,-0.13,-0.04,0.90,4.25,-118.63,-13.65,55,67,247
118,1257194,-170.7,0.0,-1.3,5.7,262.5,0.000000,0.000000,0.00,0.0,0.0,1.2,-0.10,-0.04,0.89,9.22,-120.80,-16.38,55,67,247
119,1257292,-170.7,0.0,-1.3,4.6,262.5,0.000000,0.000000,0.00,0.0,0.0,1.2,-0.06,-0.03,0.84,13.77,-118.35,-19.60,55,67,247
120,1257389,-170.7,0.0,-1.1,3.5,262.5,0.000000,0.000000,0.00,0.0,0.0,1.2,-0.04,0.00,0.83,17.97,-110.44,-21.91,55,67,247
121,1257487,-170.7,0.0,-0.8,2.5,262.4,0.000000,0.000000,0.00,0.0,0.0,1.2,-0.02,0.01,0.84,20.42,-101.48,-21.77,55,67,247
122,1257584,-170.7,0.0,-0.4,1.5,262.4,0.000000,0.000000,0.00,0.0,0.0,1.2,0.01,0.02,0.85,21.12,-92.59,-20.93,55,67,247
123,1257681,-170.7,0.0,-0.2,0.5,262.3,0.000000,0.000000,0.00,0.0,0.0,1.2,0.03,-0.00,0.89,20.28,-86.92,-20.09,55,67,247
124,1257779,-170.7,0.0,-0.1,-0.4,262.3,0.000000,0.000000,0.00,0.0,0.0,1.2,0.05,-0.01,0.93,17.06,-85.45,-19.88,55,67,247
125,1257876,-170.7,0.0,0.0,-1.3,262.3,0.000000,0.000000,0.00,0.0,0.0,1.2,0.05,0.00,0.97,10.69,-86.57,-19.74,55,67,247
126,1257973,-170.7,0.0,0.1,-2.2,262.2,0.000000,0.000000,0.00,0.0,0.0,1.2,0.04,0.01,1.00,2.85,-92.03,-18.48,55,67,247
127,1258071,-170.7,0.0,0.1,-3.0,262.2,0.000000,0.000000,0.00,0.0,0.0,1.2,0.05,0.03,1.01,-4.71,-98.33,-17.71,55,67,247
128,1258168,-170.7,0.0,0.2,-3.9,262.2,0.000000,0.000000,0.00,0.0,0.0,1.2,0.06,0.04,0.97,-10.38,-102.11,-16.17,55,67,247
129,1258265,-170.7,0.0,0.2,-4.7,262.2,0.000000,0.000000,0.00,0.0,0.0,1.2,0.06,0.03,0.96,-12.76,-102.95,-14.77,55,67,247
130,1258363,-170.7,0.0,0.1,-5.6,262.1,0.000000,0.000000,0.00,0.0,0.0,1.2,0.07,0.02,0.95,-12.76,-99.38,-14.77,55,67,247
131,1258460,-170.7,0.0,0.1,-6.4,262.1,0.000000,0.000000,0.00,0.0,0.0,1.2,0.09,0.02,0.98,-10.24,-95.11,-15.19,55,67,247
132,1258557,-170.7,0.0,0.1,-7.2,262.1,0.000000,0.000000,0.00,0.0,0.0,1.2,0.13,0.03,1.00,-7.51,-93.50,-14.77,55,67,247
133,1258655,-170.7,0.0,0.1,-8.1,262.0,0.000000,0.000000,0.00,0.0,0.0,1.2,0.16,0.02,1.02,-5.34,-93.29,-13.86,55,67,247
134,1258752,-170.7,0.0,0.2,-9.0,262.1,0.000000,0.000000,0.00,0.0,0.0,1.2,0.18,0.02,1.01,-2.47,-93.57,-12.81,55,67,247
135,1258849,-170.7,0.0,0.2,-9.9,262.0,0.000000,0.000000,0.00,0.0,0.0,1.2,0.20,0.01,1.02,-1.07,-93.01,-11.90,55,67,247
136,1258947,-170.7,0.0,0.2,-10.8,262.0,0.000000,0.000000,0.00,0.0,0.0,1.2,0.20,0.00,1.00,0.33,-94.76,-12.67,55,67,247
137,1259044,-170.7,0.0,0.2,-11.7,262.0,0.000000,0.000000,0.00,0.0,0.0,1.2,0.22,0.01,1.01,1.73,-95.74,-14.00,55,67,247
138,1259141,-170.7,0.0,0.3,-12.7,262.0,0.000000,0.000000,0.00,0.0,0.0,1.2,0.25,0.02,1.01,2.64,-96.51,-14.42,55,67,247
139,1259239,-170.7,0.0,0.4,-13.6,261.9,0.000000,0.000000,0.00,0.0,0.0,1.2,0.27,0.01,1.02,3.76,-98.26,-14.42,55,67,247
140,1259336,-170.7,0.0,0.5,-14.6,261.9,0.000000,0.000000,0.00,0.0,0.0,1.2,0.30,0.01,0.99,4.67,-100.99,-13.93,55,67,247
141,1259433,-170.7,0.0,0.5,-15.8,261.9,0.000000,0.000000,0.00,0.0,0.0,1.2,0.33,0.00,0.96,3.76,-100.99,-14.35,55,67,247
142,1259531,-170.7,0.0,0.6,-16.8,261.8,0.000000,0.000000,0.00,0.0,0.0,1.2,0.35,0.00,0.94,2.85,-98.75,-15.75,55,67,247
143,1259628,-170.7,0.0,0.6,-17.9,261.8,0.000000,0.000000,0.00,0.0,0.0,1.2,0.37,-0.00,0.94,2.22,-95.25,-16.80,55,67,247
144,1259725,-170.7,0.0,0.6,-18.9,261.8,0.000000,0.000000,0.00,0.0,0.0,1.2,0.38,-0.01,0.96,2.85,-94.41,-17.85,55,67,247
145,1259823,-170.7,0.0,0.6,-19.9,261.7,0.000000,0.000000,0.00,0.0,0.0,1.2,0.40,-0.02,0.98,3.27,-96.65,-18.90,55,67,247
146,1259920,-170.7,0.0,0.6,-20.9,261.6,0.000000,0.000000,0.00,0.0,0.0,1.2,0.41,-0.02,1.00,2.85,-101.97,-20.93,55,67,247
147,1260017,-170.7,0.0,0.6,-22.0,261.5,0.000000,0.000000,0.00,0.0,0.0,1.2,0.43,-0.01,0.98,3.13,-106.80,-23.45,55,67,247
148,1260115,-170.7,0.0,0.8,-23.1,261.3,0.000000,0.000000,0.00,0.0,0.0,1.2,0.46,0.02,0.91,3.34,-108.13,-24.15,55,67,247
149,1260212,-170.7,0.0,1.0,-24.4,261.1,0.000000,0.000000,0.00,0.0,0.0,1.2,0.88,0.27,0.89,-16.33,-80.97,-16.45,55,67,247
150,1260309,-170.7,0.0,0.8,-25.3,261.0,0.000000,0.000000,0.00,0.0,0.0,1.2,0.63,0.13,1.25,-52.24,-76.07,2.94,55,67,247
151,1260407,-170.7,0.0,0.4,-25.6,261.1,0.000000,0.000000,0.00,0.0,0.0,1.2,0.31,0.09,1.11,-54.97,-88.32,4.48,55,67,247
152,1260504,-170.7,0.0,0.2,-26.0,261.2,0.000000,0.000000,0.00,0.0,0.0,1.2,0.32,0.09,1.12,-40.48,-97.98,1.89,55,67,247
153,1260602,-170.7,0.0,0.1,-26.7,261.3,0.000000,0.000000,0.00,0.0,0.0,1.2,0.47,0.05,1.00,-22.56,-104.84,6.58,55,67,247
154,1260699,-170.7,0.0,-0.1,-27.7,261.5,0.000000,0.000000,0.00,0.0,0.0,1.2,0.60,-0.02,0.93,-7.65,-100.78,5.46,55,67,247
155,1260796,-170.7,0.0,-0.3,-28.9,261.7,0.000000,0.000000,0.00,0.0,0.0,1.2,0.62,-0.07,0.89,4.46,-97.28,1.26,55,67,247
156,1260894,-170.7,0.0,-0.3,-30.0,261.8,0.000000,0.000000,0.00,0.0,0.0,1.2,0.59,-0.07,0.82,19.02,-91.89,-6.79,55,67,247
157,1260991,-170.7,0.0,-0.1,-31.0,261.8,0.000000,0.000000,0.00,0.0,0.0,1.2,0.59,-0.07,0.78,30.92,-81.11,-16.38,55,67,247
158,1261088,-170.7,0.0,0.2,-32.0,261.8,0.000000,0.000000,0.00,0.0,0.0,1.2,0.59,-0.06,0.75,37.50,-71.87,-22.61,55,67,247
159,1261186,-170.7,0.0,0.5,-32.8,261.7,0.000000,0.000000,0.00,0.0,0.0,1.2,0.58,-0.06,0.74,39.74,-64.94,-22.68,55,67,247
160,1261283,-170.7,0.0,0.8,-33.5,261.7,0.000000,0.000000,0.00,0.0,0.0,1.2,0.56,-0.05,0.74,36.80,-61.58,-21.70,55,67,247
161,1261380,-170.7,0.0,1.0,-34.2,261.5,0.000000,0.000000,0.00,0.0,0.0,1.2,0.54,-0.05,0.71,32.11,-57.45,-21.49,55,67,247
162,1261478,-170.7,0.0,1.3,-34.8,261.4,0.000000,0.000000,0.00,0.0,0.0,1.2,0.56,-0.03,0.72,27.00,-53.53,-20.65,55,67,247
163,1261575,-170.7,0.0,1.5,-35.3,261.3,0.000000,0.000000,0.00,0.0,0.0,1.2,0.56,-0.00,0.71,21.82,-50.66,-17.43,55,67,247
164,1261672,-170.7,0.0,1.8,-35.9,261.2,0.000000,0.000000,0.00,0.0,0.0,1.2,0.56,0.02,0.73,16.92,-49.12,-13.65,55,67,247
165,1261770,-170.7,0.0,2.0,-36.3,261.1,0.000000,0.000000,0.00,0.0,0.0,1.2,0.57,0.04,0.73,11.88,-48.49,-9.73,55,67,247
166,1261867,-170.7,0.0,2.3,-36.9,261.0,0.000000,0.000000,0.00,0.0,0.0,1.2,0.58,0.06,0.71,8.87,-45.83,-5.25,55,67,247
167,1261964,-170.7,0.0,2.5,-37.4,261.0,0.000000,0.000000,0.00,0.0,0.0,1.2,0.60,0.06,0.70,7.82,-41.98,-0.49,55,67,247
168,1262062,-170.7,0.0,2.6,-37.8,261.0,0.000000,0.000000,0.00,0.0,0.0,1.2,0.61,0.06,0.70,7.12,-37.64,2.59,55,67,247
169,1262159,-170.7,0.0,2.8,-38.3,261.0,0.000000,0.000000,0.00,0.0,0.0,1.2,0.62,0.06,0.70,6.35,-33.37,5.32,55,67,247
170,1262256,-170.7,0.0,2.8,-38.7,261.1,0.000000,0.000000,0.00,0.0,0.0,1.2,0.63,0.05,0.69,6.49,-28.05,7.07,55,67,247
171,1262354,-170.7,0.0,2.9,-39.0,261.2,0.000000,0.000000,0.00,0.0,0.0,1.2,0.64,0.05,0.68,6.84,-22.10,8.26,55,67,247
172,1262451,-170.7,0.0,2.9,-39.3,261.3,0.000000,0.000000,0.00,0.0,0.0,1.2,0.66,0.04,0.64,8.10,-14.19,9.80,55,67,247
173,1262548,-170.7,0.0,2.9,-39.6,261.5,0.000000,0.000000,0.00,0.0,0.0,1.2,0.69,0.01,0.60,9.78,-2.71,10.43,55,67,247
174,1262646,-170.7,0.0,2.8,-39.9,261.7,0.000000,0.000000,0.00,0.0,0.0,1.2,0.71,-0.03,0.56,10.55,11.78,8.61,55,67,247
175,1262743,-170.7,0.0,2.7,-40.0,261.9,0.000000,0.000000,0.00,0.0,0.0,1.2,0.74,-0.06,0.51,10.13,30.61,4.34,55,67,247
176,1262840,-170.7,0.0,2.5,-39.9,262.1,0.000000,0.000000,0.00,0.0,0.0,1.2,0.76,-0.09,0.49,9.01,52.24,-1.89,55,67,247
177,1262938,-170.7,0.0,2.4,-39.5,262.2,0.000000,0.000000,0.00,0.0,0.0,1.2,0.74,-0.09,0.50,8.31,75.90,-9.31,55,67,247
178,1263035,-170.7,0.0,2.4,-39.0,262.2,0.000000,0.000000,0.00,0.0,0.0,1.2,0.71,-0.07,0.52,8.59,99.42,-15.47,55,67,247
179,1263132,-170.7,0.0,2.4,-38.2,262.1,0.000000,0.000000,0.00,0.0,0.0,1.2,0.66,-0.05,0.57,8.24,121.68,-19.32,55,67,247
180,1263230,-170.7,0.0,2.4,-37.0,262.1,0.000000,0.000000,0.00,0.0,0.0,1.2,0.59,-0.03,0.69,5.86,136.73,-21.70,55,67,247
181,1263327,-170.7,0.0,2.5,-35.4,261.9,0.000000,0.000000,0.00,0.0,0.0,1.2,0.49,0.04,0.89,-0.65,138.55,-22.54,55,67,247
182,1263424,-170.7,0.0,2.7,-33.6,261.6,0.000000,0.000000,0.00,0.0,0.0,1.2,0.40,0.15,1.07,-10.66,123.22,-16.38,55,67,247
183,1263522,-170.7,0.0,2.9,-32.0,261.4,0.000000,0.000000,0.00,0.0,0.0,1.2,0.35,0.23,1.21,-18.08,97.81,-4.13,55,67,247
184,1263619,-170.7,0.0,3.0,-30.8,261.3,0.000000,0.000000,0.00,0.0,0.0,1.2,0.34,0.28,1.28,-22.49,66.10,11.13,55,67,247
185,1263716,-170.7,0.0,3.0,-29.9,261.4,0.000000,0.000000,0.00,0.0,0.0,1.2,0.37,0.29,1.28,-23.33,34.74,27.16,55,67,247
186,1263814,-170.7,0.0,3.0,-29.3,261.6,0.000000,0.000000,0.00,0.0,0.0,1.2,0.43,0.26,1.20,-22.21,8.56,41.72,55,67,247
187,1263911,-170.7,0.0,2.8,-29.2,261.9,0.000000,0.000000,0.00,0.0,0.0,1.2,0.50,0.18,1.08,-19.90,-8.52,51.66,55,67,247
188,1264009,-170.7,0.0,2.6,-29.3,262.4,0.000000,0.000000,0.00,0.0,0.0,1.2,0.55,0.10,0.96,-17.31,-14.68,55.37,55,67,247
189,1264106,-170.7,0.0,2.1,-29.7,263.0,0.000000,0.000000,0.00,0.0,0.0,1.2,0.58,0.03,0.87,-14.09,-12.86,55.09,55,67,247
190,1264203,-170.7,0.0,1.6,-30.0,263.6,0.000000,0.000000,0.00,0.0,0.0,1.2,0.59,-0.03,0.80,-11.29,-5.72,52.29,55,67,247
191,1264301,-170.7,0.0,1.1,-30.3,264.2,0.000000,0.000000,0.00,0.0,0.0,1.2,0.62,-0.08,0.74,-8.21,5.62,47.88,55,67,247
192,1264398,-170.7,0.0,0.5,-30.4,264.9,0.000000,0.000000,0.00,0.0,0.0,1.2,0.63,-0.12,0.70,-5.62,19.69,40.18,55,67,247
193,1264495,-170.7,0.0,0.0,-30.5,265.4,0.000000,0.000000,0.00,0.0,0.0,1.2,0.62,-0.13,0.70,-4.57,33.48,31.92,55,67,247
194,1264593,-170.7,0.0,-0.4,-30.3,265.8,0.000000,0.000000,0.00,0.0,0.0,1.2,0.59,-0.10,0.76,-6.11,43.14,24.57,55,67,247
195,1264690,-170.7,0.0,-0.8,-30.0,266.1,0.000000,0.000000,0.00,0.0,0.0,1.2,0.54,-0.06,0.82,-8.35,47.83,21.07,55,67,247
196,1264787,-170.7,0.0,-1.1,-29.6,266.4,0.000000,0.000000,0.00,0.0,0.0,1.2,0.49,-0.02,0.89,-10.38,47.20,21.21,55,67,247
197,1264885,-170.7,0.0,-1.2,-29.1,266.5,0.000000,0.000000,0.00,0.0,0.0,1.2,0.46,0.01,0.95,-12.34,41.67,23.73,55,67,247
198,1264982,-170.7,0.0,-1.3,-28.6,266.6,0.000000,0.000000,0.00,0.0,0.0,1.2,0.44,0.04,0.97,-13.67,33.55,28.42,55,67,247
199,1265079,-170.7,0.0,-1.3,-28.1,266.8,0.000000,0.000000,0.00,0.0,0.0,1.2,0.44,0.05,0.96,-14.09,25.85,34.16,55,67,247
200,1265177,-170.7,0.0,-1.4,-27.9,267.0,0.000000,0.000000,0.00,0.0,0.0,1.2,0.45,0.04,0.92,-13.18,21.44,39.34,55,67,247
201,1265274,-170.7,0.0,-1.6,-27.7,267.4,0.000000,0.000000,0.00,0.0,0.0,1.2,0.47,0.01,0.86,-10.80,21.37,42.91,55,67,247
202,1265371,-170.7,0.0,-1.9,-27.6,267.7,0.000000,0.000000,0.00,0.0,0.0,1.2,0.48,-0.03,0.81,-8.35,26.06,44.87,55,67,247
203,1265469,-170.7,0.0,-2.3,-27.6,268.2,0.000000,0.000000,0.00,0.0,0.0,1.2,0.49,-0.07,0.77,-6.88,34.04,44.66,55,67,247
204,1265566,-170.7,0.0,-2.7,-27.4,268.7,0.000000,0.000000,0.00,0.0,0.0,1.2,0.48,-0.11,0.73,-5.90,44.19,42.42,55,67,247
205,1265663,-170.7,0.0,-3.2,-27.2,269.1,0.000000,0.000000,0.00,0.0,0.0,1.2,0.49,-0.13,0.70,-5.27,56.93,38.78,55,67,247
206,1265761,-170.7,0.0,-3.6,-26.8,269.5,0.000000,0.000000,0.00,0.0,0.0,1.2,0.49,-0.16,0.68,-4.71,72.82,34.16,55,67,247
207,1265858,-170.7,0.0,-4.0,-26.3,269.8,0.000000,0.000000,0.00,0.0,0.0,1.2,0.50,-0.17,0.65,-4.15,91.02,28.98,55,67,247
208,1265955,-170.7,0.0,-4.4,-25.6,270.1,0.000000,0.000000,0.00,0.0,0.0,1.2,0.51,-0.18,0.63,-4.15,112.51,22.82,55,67,247
209,1266053,-170.7,0.0,-4.7,-24.7,270.2,0.000000,0.000000,0.00,0.0,0.0,1.2,0.50,-0.17,0.64,-4.64,136.73,16.45,55,67,247
210,1266150,-170.7,0.0,-5.0,-23.6,270.2,0.000000,0.000000,0.00,0.0,0.0,1.2,0.46,-0.16,0.68,-5.41,159.69,11.06,55,67,247
211,1266247,-170.7,0.0,-5.2,-22.2,270.1,0.000000,0.000000,0.00,0.0,0.0,1.2,0.37,-0.14,0.80,-5.48,176.91,6.79,55,67,247
212,1266345,-170.7,0.0,-5.2,-20.4,269.8,0.000000,0.000000,0.00,0.0,0.0,1.2,0.25,-0.08,0.99,-7.79,178.66,4.97,55,67,247
213,1266442,-170.7,0.0,-5.1,-18.3,269.5,0.000000,0.000000,0.00,0.0,0.0,1.2,0.14,-0.03,1.14,-12.41,163.19,7.14,55,67,247
214,1266539,-170.7,0.0,-4.9,-16.6,269.2,0.000000,0.000000,0.00,0.0,0.0,1.2,0.07,0.03,1.23,-17.94,136.59,12.53,55,67,247
215,1266637,-170.7,0.0,-4.7,-15.1,269.0,0.000000,0.000000,0.00,0.0,0.0,1.2,0.06,0.06,1.23,-23.68,108.10,21.00,55,67,247
216,1266734,-170.7,0.0,-4.6,-14.0,268.9,0.000000,0.000000,0.00,0.0,0.0,1.2,0.10,0.05,1.18,-27.88,85.07,30.87,55,67,247
217,1266831,-170.7,0.0,-4.7,-13.1,268.9,0.000000,0.000000,0.00,0.0,0.0,1.2,0.15,0.02,1.11,-31.66,68.62,39.97,55,67,247
218,1266929,-170.7,0.0,-4.8,-12.6,269.1,0.000000,0.000000,0.00,0.0,0.0,1.2,0.19,-0.02,1.04,-36.28,59.38,45.78,55,67,247
219,1267026,-170.7,0.0,-5.1,-12.1,269.3,0.000000,0.000000,0.00,0.0,0.0,1.2,0.20,-0.04,0.97,-39.71,59.66,48.30,55,67,247
220,1267123,-170.7,0.0,-5.4,-11.7,269.5,0.000000,0.000000,0.00,0.0,0.0,1.2,0.21,-0.07,0.91,-40.34,67.57,49.63,55,67,247
221,1267221,-170.7,0.0,-5.8,-11.2,269.7,0.000000,0.000000,0.00,0.0,0.0,1.2,0.19,-0.09,0.86,-38.38,80.52,50.05,55,67,247
222,1267318,-170.7,0.0,-6.3,-10.4,270.0,0.000000,0.000000,0.00,0.0,0.0,1.2,0.15,-0.11,0.83,-36.91,95.15,50.40,55,67,247
223,1267416,-170.7,0.0,-6.8,-9.5,270.2,0.000000,0.000000,0.00,0.0,0.0,1.2,0.11,-0.14,0.80,-37.33,109.36,50.89,55,67,247
224,1267513,-170.7,0.0,-7.4,-8.4,270.4,0.000000,0.000000,0.00,0.0,0.0,1.2,0.10,-0.16,0.81,-38.66,121.96,50.54,55,67,247
225,1267610,-170.7,0.0,-8.0,-7.2,270.5,0.000000,0.000000,0.00,0.0,0.0,1.2,0.06,-0.18,0.84,-40.55,129.94,48.09,55,67,247
226,1267708,-170.7,0.0,-8.6,-5.9,270.5,0.000000,0.000000,0.00,0.0,0.0,1.2,0.01,-0.18,0.92,-42.37,132.39,44.94,55,67,247
227,1267805,-170.7,0.0,-9.0,-4.5,270.5,0.000000,0.000000,0.00,0.0,0.0,1.2,-0.03,-0.16,0.99,-44.96,126.72,44.45,55,67,247
228,1267902,-170.7,0.0,-9.3,-3.1,270.5,0.000000,0.000000,0.00,0.0,0.0,1.2,-0.06,-0.15,1.03,-48.60,117.83,46.13,55,67,247
229,1268000,-170.7,0.0,-9.6,-2.1,270.5,0.000000,0.000000,0.00,0.0,0.0,1.2,-0.04,-0.17,1.07,-52.80,106.98,47.32,55,67,247
230,1268097,-170.7,0.0,-10.0,-1.2,270.5,0.000000,0.000000,0.00,0.0,0.0,1.2,-0.04,-0.18,1.07,-56.79,96.69,48.30,55,67,247
231,1268194,-170.7,0.0,-10.5,-0.5,270.5,0.000000,0.000000,0.00,0.0,0.0,1.2,-0.02,-0.20,1.06,-59.66,90.04,48.86,55,67,247
232,1268292,-170.7,0.0,-11.0,0.0,270.6,0.000000,0.000000,0.00,0.0,0.0,1.2,-0.02,-0.22,1.05,-59.94,87.66,47.46,55,67,247
233,1268389,-170.7,0.0,-11.5,0.6,270.6,0.000000,0.000000,0.00,0.0,0.0,1.2,-0.03,-0.23,1.05,-56.09,88.43,44.80,55,67,247
234,1268486,-170.7,0.0,-11.9,1.2,270.5,0.000000,0.000000,0.00,0.0,0.0,1.2,-0.04,-0.25,1.05,-47.90,90.67,40.95,55,67,247
235,1268584,-170.7,0.0,-12.2,1.7,270.4,0.000000,0.000000,0.00,0.0,0.0,1.2,-0.05,-0.28,1.05,-36.28,92.07,36.96,55,67,247
236,1268681,-170.7,0.0,-12.5,2.3,270.3,0.000000,0.000000,0.00,0.0,0.0,1.2,-0.08,-0.30,1.04,-23.82,93.75,32.06,55,67,247
237,1268778,-170.7,0.0,-12.7,3.0,270.0,0.000000,0.000000,0.00,0.0,0.0,1.2,-0.11,-0.31,1.06,-11.71,94.52,26.39,55,67,247
238,1268876,-170.7,0.0,-12.7,3.7,269.8,0.000000,0.000000,0.00,0.0,0.0,1.2,-0.15,-0.29,1.06,-2.61,92.00,22.47,55,67,247
239,1268973,-170.7,0.0,-12.6,4.4,269.5,0.000000,0.000000,0.00,0.0,0.0,1.2,-0.19,-0.26,1.03,2.64,88.71,21.07,55,67,247
240,1269070,-170.7,0.0,-12.4,5.3,269.1,0.000000,0.000000,0.00,0.0,0.0,1.2,-0.20,-0.25,1.01,3.34,85.00,22.12,55,67,247
241,1269168,-170.7,0.0,-12.2,6.0,268.9,0.000000,0.000000,0.00,0.0,0.0,1.2,-0.23,-0.25,0.99,-0.23,80.38,23.80,55,67,247
242,1269265,-170.7,0.0,-12.2,6.8,268.6,0.000000,0.000000,0.00,0.0,0.0,1.2,-0.23,-0.24,0.97,-7.86,75.20,24.57,55,67,247
243,1269362,-170.7,0.0,-12.2,7.5,268.4,0.000000,0.000000,0.00,0.0,0.0,1.2,-0.24,-0.23,0.95,-17.87,69.53,25.41,55,67,247
244,1269460,-170.7,0.0,-12.2,8.1,268.2,0.000000,0.000000,0.00,0.0,0.0,1.2,-0.24,-0.22,0.94,-28.58,63.65,27.51,55,67,247
245,1269557,-170.7,0.0,-12.4,8.6,268.0,0.000000,0.000000,0.00,0.0,0.0,1.2,-0.24,-0.22,0.93,-37.96,60.50,28.63,55,67,247
246,1269654,-170.7,0.0,-12.6,9.1,267.8,0.000000,0.000000,0.00,0.0,0.0,1.2,-0.25,-0.23,0.92,-45.03,59.38,29.40,55,67,247
247,1269752,-170.7,0.0,-12.8,9.6,267.7,0.000000,0.000000,0.00,0.0,0.0,1.2,-0.25,-0.22,0.92,-49.02,59.03,30.31,55,67,247
248,1269849,-170.7,0.0,-13.1,10.1,267.5,0.000000,0.000000,0.00,0.0,0.0,1.2,-0.26,-0.23,0.89,-49.58,61.76,30.66,55,67,247
249,1269946,-170.7,0.0,-13.4,10.8,267.3,0.000000,0.000000,0.00,0.0,0.0,1.2,-0.28,-0.25,0.88,-47.06,66.80,29.96,55,67,247
250,1270044,-170.7,0.0,-13.7,11.5,267.1,0.000000,0.000000,0.00,0.0,0.0,1.2,-0.29,-0.26,0.86,-43.56,73.03,29.26,55,67,247
251,1270141,-170.7,0.0,-14.1,12.2,266.8,0.000000,0.000000,0.00,0.0,0.0,1.2,-0.30,-0.29,0.84,-39.78,79.82,28.98,55,67,247
252,1270238,-170.7,0.0,-14.6,13.0,266.5,0.000000,0.000000,0.00,0.0,0.0,1.2,-0.30,-0.31,0.82,-35.37,87.80,28.56,55,67,247
253,1270336,-170.7,0.0,-15.2,13.9,266.1,0.000000,0.000000,0.00,0.0,0.0,1.2,-0.31,-0.34,0.82,-31.31,95.36,26.95,55,67,247
254,1270433,-170.7,0.0,-15.8,14.7,265.7,0.000000,0.000000,0.00,0.0,0.0,1.2,-0.33,-0.35,0.83,-28.37,99.91,23.94,55,67,247
255,1270531,-170.7,0.0,-16.1,15.6,265.2,0.000000,0.000000,0.00,0.0,0.0,1.2,-0.36,-0.34,0.86,-26.13,99.14,19.95,55,67,247
256,1270628,-170.7,0.0,-16.3,16.4,264.8,0.000000,0.000000,0.00,0.0,0.0,1.2,-0.37,-0.32,0.86,-26.20,93.82,16.52,55,67,247
257,1270725,-170.7,0.0,-16.4,17.1,264.3,0.000000,0.000000,0.00,0.0,0.0,1.2,-0.39,-0.30,0.84,-28.30,89.69,14.21,55,67,247
258,1270823,-170.7,0.0,-16.4,17.9,263.9,0.000000,0.000000,0.00,0.0,0.0,1.2,-0.40,-0.28,0.84,-32.64,85.28,13.02,55,67,247
259,1270920,-170.7,0.0,-16.3,18.6,263.5,0.000000,0.000000,0.00,0.0,0.0,1.2,-0.41,-0.28,0.84,-38.66,80.45,13.23,55,67,247
260,1271017,-170.7,0.0,-16.4,19.2,263.1,0.000000,0.000000,0.00,0.0,0.0,1.2,-0.42,-0.29,0.82,-45.52,76.18,13.37,55,67,247
261,1271115,-170.7,0.0,-16.6,19.9,262.7,0.000000,0.000000,0.00,0.0,0.0,1.2,-0.43,-0.30,0.80,-51.33,73.45,12.67,55,67,247
262,1271212,-170.7,0.0,-16.9,20.5,262.2,0.000000,0.000000,0.00,0.0,0.0,1.2,-0.43,-0.31,0.78,-54.69,74.71,11.55,55,67,247
263,1271309,-170.7,0.0,-17.5,21.4,261.7,0.000000,0.000000,0.00,0.0,0.0,1.2,-0.44,-0.32,0.78,-55.39,77.93,10.50,55,67,247
264,1271407,-170.7,0.0,-18.1,22.1,261.1,0.000000,0.000000,0.00,0.0,0.0,1.2,-0.45,-0.33,0.78,-53.08,81.85,9.94,55,67,247
265,1271504,-170.7,0.0,-18.6,22.9,260.6,0.000000,0.000000,0.00,0.0,0.0,1.2,-0.46,-0.34,0.75,-48.32,88.36,9.17,55,67,247
266,1271601,-170.7,0.0,-19.1,23.8,259.9,0.000000,0.000000,0.00,0.0,0.0,1.2,-0.47,-0.34,0.73,-42.30,98.09,8.33,55,67,247
267,1271699,-170.7,0.0,-19.4,24.9,259.2,0.000000,0.000000,0.00,0.0,0.0,1.2,-0.51,-0.34,0.73,-34.53,108.87,8.05,55,67,247
268,1271796,-170.7,0.0,-19.3,26.1,258.8,0.000000,0.000000,0.00,0.0,0.0,1.2,-0.57,-0.33,0.80,-24.66,111.25,8.33,55,67,247
269,1271893,-170.7,0.0,-19.1,27.2,258.4,0.000000,0.000000,0.00,0.0,0.0,1.2,-0.60,-0.33,0.82,-18.43,103.20,9.38,55,67,247
270,1271991,-170.7,0.0,-18.8,28.1,258.0,0.000000,0.000000,0.00,0.0,0.0,1.2,-0.60,-0.34,0.82,-14.44,90.74,10.29,55,67,247
271,1272088,-170.7,0.0,-18.6,28.7,257.5,0.000000,0.000000,0.00,0.0,0.0,1.2,-0.58,-0.37,0.79,-13.88,78.84,10.50,55,67,247
272,1272185,-170.7,0.0,-18.8,29.0,256.9,0.000000,0.000000,0.00,0.0,0.0,1.2,-0.55,-0.40,0.76,-17.38,71.07,9.45,55,67,247
273,1272283,-170.7,0.0,-19.4,29.4,256.3,0.000000,0.000000,0.00,0.0,0.0,1.2,-0.56,-0.41,0.77,-20.25,66.52,7.91,55,67,247
274,1272380,-170.7,0.0,-19.9,29.6,255.6,0.000000,0.000000,0.00,0.0,0.0,1.2,-0.56,-0.42,0.77,-22.49,60.64,5.04,55,67,247
275,1272477,-170.7,0.0,-20.3,29.8,254.9,0.000000,0.000000,0.00,0.0,0.0,1.2,-0.57,-0.41,0.77,-22.63,54.34,1.68,55,67,247
276,1272575,-170.7,0.0,-20.6,30.0,254.3,0.000000,0.000000,0.00,0.0,0.0,1.2,-0.58,-0.39,0.76,-20.18,50.21,-0.91,55,67,247
277,1272672,-170.7,0.0,-20.6,30.4,253.8,0.000000,0.000000,0.00,0.0,0.0,1.2,-0.60,-0.37,0.74,-15.91,48.74,-2.10,55,67,247
278,1272769,-170.7,0.0,-20.6,31.1,253.3,0.000000,0.000000,0.00,0.0,0.0,1.2,-0.63,-0.35,0.72,-11.43,49.23,-2.31,55,67,247
279,1272867,-170.7,0.0,-20.5,31.8,253.0,0.000000,0.000000,0.00,0.0,0.0,1.2,-0.64,-0.35,0.72,-7.58,49.58,-1.40,55,67,247
280,1272964,-170.7,0.0,-20.5,32.6,252.6,0.000000,0.000000,0.00,0.0,0.0,1.2,-0.65,-0.36,0.71,-4.22,50.91,0.07,55,67,247
281,1273061,-170.7,0.0,-20.3,33.3,252.2,0.000000,0.000000,0.00,0.0,0.0,1.2,-0.66,-0.36,0.73,-0.93,50.91,1.47,55,67,247
282,1273159,-170.7,0.0,-20.0,33.8,251.8,0.000000,0.000000,0.00,0.0,0.0,1.2,-0.68,-0.36,0.76,3.55,46.43,2.73,55,67,247
283,1273256,-170.7,0.0,-19.7,34.1,251.5,0.000000,0.000000,0.00,0.0,0.0,1.2,-0.68,-0.36,0.76,3.69,33.48,3.85,55,67,247
284,1273353,-170.7,0.0,-19.9,34.3,251.0,0.000000,0.000000,0.00,0.0,0.0,1.2,-0.66,-0.38,0.75,4.88,24.17,4.48,55,67,247
285,1273451,-170.7,0.0,-20.1,34.3,250.5,0.000000,0.000000,0.00,0.0,0.0,1.2,-0.66,-0.40,0.77,6.77,17.17,4.34,55,67,247
286,1273548,-170.7,0.0,-20.2,34.1,250.1,0.000000,0.000000,0.00,0.0,0.0,1.2,-0.66,-0.41,0.79,10.62,7.44,3.78,55,67,247
287,1273645,-170.7,0.0,-20.4,33.8,249.6,0.000000,0.000000,0.00,0.0,0.0,1.2,-0.66,-0.42,0.80,16.36,-2.29,3.01,55,67,247
288,1273743,-170.7,0.0,-20.5,33.6,249.2,0.000000,0.000000,0.00,0.0,0.0,1.2,-0.67,-0.43,0.80,24.76,-10.62,2.17,55,67,247
289,1273840,-170.7,0.0,-20.6,33.4,248.9,0.000000,0.000000,0.00,0.0,0.0,1.2,-0.68,-0.42,0.79,34.70,-17.97,1.12,55,67,247
290,1273938,-170.7,0.0,-20.4,33.4,248.6,0.000000,0.000000,0.00,0.0,0.0,1.2,-0.69,-0.41,0.77,44.64,-23.43,0.14,55,67,247
291,1274035,-170.7,0.0,-20.1,33.4,248.5,0.000000,0.000000,0.00,0.0,0.0,1.2,-0.70,-0.39,0.78,52.90,-28.33,-0.07,55,67,247
292,1274132,-170.7,0.0,-19.7,33.3,248.3,0.000000,0.000000,0.00,0.0,0.0,1.2,-0.67,-0.40,0.80,60.74,-34.42,1.12,55,67,247
293,1274230,-170.7,0.0,-19.4,33.0,248.1,0.000000,0.000000,0.00,0.0,0.0,1.2,-0.67,-0.38,0.80,67.25,-41.21,1.61,55,67,247
294,1274327,-170.7,0.0,-18.9,32.9,248.0,0.000000,0.000000,0.00,0.0,0.0,1.2,-0.68,-0.35,0.79,76.07,-45.83,1.33,55,67,247
295,1274424,-170.7,0.0,-18.3,32.9,248.0,0.000000,0.000000,0.00,0.0,0.0,1.2,-0.68,-0.34,0.78,82.58,-49.96,2.52,55,67,247
296,1274522,-170.7,0.0,-17.7,32.7,248.0,0.000000,0.000000,0.00,0.0,0.0,1.2,-0.64,-0.36,0.78,87.13,-55.21,5.25,55,67,247
297,1274619,-170.7,0.0,-17.1,32.4,247.9,0.000000,0.000000,0.00,0.0,0.0,1.2,-0.64,-0.34,0.77,89.30,-60.04,6.65,55,67,247
298,1274716,-170.7,0.0,-16.5,32.1,247.9,0.000000,0.000000,0.00,0.0,0.0,1.2,-0.64,-0.33,0.76,94.34,-62.91,5.25,55,67,247
299,1274814,-170.7,0.0,-15.8,31.9,247.9,0.000000,0.000000,0.00,0.0,0.0,1.2,-0.64,-0.30,0.75,94.76,-64.66,4.76,55,67,247
300,1274911,-170.7,0.0,-15.0,31.6,247.9,0.000000,0.000000,0.00,0.0,0.0,1.2,-0.61,-0.30,0.75,96.09,-66.13,5.60,55,67,247
301,1275008,-170.7,0.0,-14.4,31.3,247.9,0.000000,0.000000,0.00,0.0,0.0,1.2,-0.60,-0.30,0.74,97.00,-66.62,5.88,55,67,247
302,1275106,-170.7,0.0,-13.8,31.0,247.8,0.000000,0.000000,0.00,0.0,0.0,1.2,-0.57,-0.31,0.75,98.12,-66.55,4.97,55,67,247
303,1275203,-170.7,0.0,-13.3,30.5,247.7,0.000000,0.000000,0.00,0.0,0.0,1.2,-0.55,-0.31,0.77,100.85,-65.64,2.10,55,67,247
304,1275300,-170.7,0.0,-12.8,30.1,247.6,0.000000,0.000000,0.00,0.0,0.0,1.2,-0.55,-0.30,0.79,104.98,-66.06,-0.42,55,67,247
305,1275398,-170.7,0.0,-12.2,29.7,247.4,0.000000,0.000000,0.00,0.0,0.0,1.2,-0.54,-0.29,0.78,109.25,-67.04,-3.50,55,67,247
306,1275495,-170.7,0.0,-11.6,29.3,247.3,0.000000,0.000000,0.00,0.0,0.0,1.2,-0.53,-0.26,0.80,113.17,-68.23,-5.53,55,67,247
307,1275592,-170.7,0.0,-10.8,28.9,247.2,0.000000,0.000000,0.00,0.0,0.0,1.2,-0.54,-0.21,0.81,116.88,-71.80,-7.07,55,67,247
308,1275690,-170.7,0.0,-9.9,28.6,247.2,0.000000,0.000000,0.00,0.0,0.0,1.2,-0.52,-0.18,0.79,117.02,-78.38,-7.35,55,67,247
309,1275787,-170.7,0.0,-8.9,28.3,247.2,0.000000,0.000000,0.00,0.0,0.0,1.2,-0.54,-0.16,0.78,114.92,-81.18,-8.26,55,67,247
310,1275884,-170.7,0.0,-7.9,27.9,247.3,0.000000,0.000000,0.00,0.0,0.0,1.2,-0.52,-0.13,0.79,110.30,-83.21,-7.98,55,67,247
311,1275982,-170.7,0.0,-7.0,27.6,247.4,0.000000,0.000000,0.00,0.0,0.0,1.2,-0.50,-0.12,0.79,105.19,-85.38,-7.70,55,67,247
312,1276079,-170.7,0.0,-6.1,27.2,247.5,0.000000,0.000000,0.00,0.0,0.0,1.2,-0.49,-0.11,0.79,102.18,-85.52,-8.33,55,67,247
313,1276176,-170.7,0.0,-5.3,26.8,247.5,0.000000,0.000000,0.00,0.0,0.0,1.2,-0.48,-0.10,0.80,100.71,-85.45,-9.59,55,67,247
314,1276274,-170.7,0.0,-4.5,26.4,247.6,0.000000,0.000000,0.00,0.0,0.0,1.2,-0.46,-0.09,0.80,98.68,-85.87,-10.92,55,67,247
315,1276371,-170.7,0.0,-3.8,25.9,247.7,0.000000,0.000000,0.00,0.0,0.0,1.2,-0.45,-0.09,0.81,95.60,-85.10,-12.18,55,67,247
316,1276468,-170.7,0.0,-3.2,25.4,247.8,0.000000,0.000000,0.00,0.0,0.0,1.2,-0.42,-0.08,0.84,92.73,-84.89,-13.79,55,67,247
317,1276566,-170.7,0.0,-2.6,24.9,247.9,0.000000,0.000000,0.00,0.0,0.0,1.2,-0.40,-0.07,0.86,91.05,-85.80,-16.24,55,67,247
318,1276663,-170.7,0.0,-2.0,24.2,248.0,0.000000,0.000000,0.00,0.0,0.0,1.2,-0.38,-0.05,0.89,89.79,-86.71,-19.74,55,67,247
319,1276760,-170.7,0.0,-1.3,23.5,248.1,0.000000,0.000000,0.00,0.0,0.0,1.2,-0.38,-0.01,0.91,89.44,-88.53,-23.10,55,67,247
320,1276858,-170.7,0.0,-0.5,22.9,248.3,0.000000,0.000000,0.00,0.0,0.0,1.2,-0.39,0.03,0.92,89.79,-90.70,-25.06,55,67,247
321,1276955,-170.7,0.0,0.5,22.2,248.5,0.000000,0.000000,0.00,0.0,0.0,1.2,-0.39,0.07,0.92,90.77,-93.64,-26.04,55,67,247
322,1277052,-170.7,0.0,1.6,21.6,248.7,0.000000,0.000000,0.00,0.0,0.0,1.2,-0.37,0.11,0.91,90.84,-95.39,-25.90,55,67,247
323,1277150,-170.7,0.0,2.7,21.0,248.9,0.000000,0.000000,0.00,0.0,0.0,1.2,-0.35,0.13,0.87,88.88,-94.83,-24.01,55,67,247
324,1277247,-170.7,0.0,3.7,20.3,249.1,0.000000,0.000000,0.00,0.0,0.0,1.2,-0.34,0.13,0.85,86.92,-91.26,-22.05,55,67,247
325,1277345,-170.7,0.0,4.7,19.7,249.3,0.000000,0.000000,0.00,0.0,0.0,1.2,-0.31,0.15,0.87,84.19,-87.97,-21.14,55,67,247
326,1277442,-170.7,0.0,5.6,19.1,249.6,0.000000,0.000000,0.00,0.0,0.0,1.2,-0.29,0.14,0.86,78.94,-85.59,-21.91,55,67,247
327,1277539,-170.7,0.0,6.4,18.4,249.8,0.000000,0.000000,0.00,0.0,0.0,1.2,-0.26,0.15,0.86,71.94,-82.86,-22.47,55,67,247
328,1277637,-170.7,0.0,7.1,17.7,250.1,0.000000,0.000000,0.00,0.0,0.0,1.2,-0.23,0.15,0.87,65.36,-80.55,-23.66,55,67,247
329,1277734,-170.7,0.0,7.6,16.9,250.3,0.000000,0.000000,0.00,0.0,0.0,1.2,-0.21,0.14,0.90,57.59,-77.40,-28.84,55,67,247
330,1277831,-170.7,0.0,8.1,16.2,250.4,0.000000,0.000000,0.00,0.0,0.0,1.2,-0.22,0.18,0.92,47.09,-77.75,-31.99,55,67,247
331,1277929,-170.7,0.0,8.6,15.5,250.6,0.000000,0.000000,0.00,0.0,0.0,1.2,-0.23,0.23,0.91,40.58,-75.37,-31.36,55,67,247
332,1278026,-170.7,0.0,9.2,15.0,250.7,0.000000,0.000000,0.00,0.0,0.0,1.2,-0.23,0.26,0.92,37.08,-70.40,-28.56,55,67,247
333,1278123,-170.7,0.0,9.7,14.4,250.9,0.000000,0.000000,0.00,0.0,0.0,1.2,-0.22,0.28,1.02,29.52,-72.50,-25.55,55,67,247
334,1278221,-170.7,0.0,10.3,13.8,251.1,0.000000,0.000000,0.00,0.0,0.0,1.2,-0.18,0.25,0.91,34.56,-62.00,-22.40,55,67,247
335,1278318,-170.7,0.0,10.6,13.2,251.4,0.000000,0.000000,0.00,0.0,0.0,1.2,-0.18,0.23,1.04,34.63,-60.18,-20.51,55,67,247
336,1278415,-170.7,0.0,11.0,12.5,251.7,0.000000,0.000000,0.00,0.0,0.0,1.2,-0.16,0.21,0.99,33.44,-61.72,-19.60,55,67,247
337,1278513,-170.7,0.0,11.2,11.9,251.9,0.000000,0.000000,0.00,0.0,0.0,1.2,-0.17,0.19,1.01,32.46,-64.38,-20.09,55,67,247
338,1278610,-170.7,0.0,11.4,11.4,252.2,0.000000,0.000000,0.00,0.0,0.0,1.2,-0.18,0.19,0.98,32.32,-66.76,-20.86,55,67,247
339,1278707,-170.7,0.0,11.6,10.9,252.4,0.000000,0.000000,0.00,0.0,0.0,1.2,-0.16,0.19,0.96,33.44,-64.59,-21.70,55,67,247
340,1278805,-170.7,0.0,11.8,10.4,252.7,0.000000,0.000000,0.00,0.0,0.0,1.2,-0.15,0.20,0.98,35.75,-59.55,-21.63,55,67,247
341,1278902,-170.7,0.0,12.0,9.8,252.9,0.000000,0.000000,0.00,0.0,0.0,1.2,-0.12,0.20,1.02,37.22,-55.91,-21.49,55,67,247
342,1278999,-170.7,0.0,12.3,9.2,253.2,0.000000,0.000000,0.00,0.0,0.0,1.2,-0.11,0.22,1.08,37.29,-58.01,-21.70,55,67,247
343,1279097,-170.7,0.0,12.5,8.6,253.4,0.000000,0.000000,0.00,0.0,0.0,1.2,-0.09,0.23,1.09,36.38,-64.31,-21.07,55,67,247
344,1279194,-170.7,0.0,12.7,7.9,253.6,0.000000,0.000000,0.00,0.0,0.0,1.2,-0.08,0.23,1.09,35.68,-70.96,-20.16,55,67,247
345,1279291,-170.7,0.0,13.0,7.0,253.8,0.000000,0.000000,0.00,0.0,0.0,1.2,-0.05,0.22,1.07,35.47,-77.33,-19.81,55,67,247
346,1279389,-170.7,0.0,13.2,6.2,254.0,0.000000,0.000000,0.00,0.0,0.0,1.2,-0.05,0.22,1.05,36.38,-82.02,-20.09,55,67,247
347,1279486,-170.7,0.0,13.4,5.4,254.2,0.000000,0.000000,0.00,0.0,0.0,1.2,-0.06,0.22,1.05,37.50,-87.13,-21.35,55,67,247
348,1279583,-170.7,0.0,13.6,4.5,254.3,0.000000,0.000000,0.00,0.0,0.0,1.2,-0.06,0.22,1.03,38.13,-93.36,-21.91,55,67,247
349,1279681,-170.7,0.0,13.9,3.7,254.4,0.000000,0.000000,0.00,0.0,0.0,1.2,-0.05,0.22,0.99,38.34,-98.12,-21.84,55,67,247
350,1279778,-170.7,0.0,14.1,2.9,254.5,0.000000,0.000000,0.00,0.0,0.0,1.2,-0.05,0.22,0.96,37.71,-101.06,-22.26,55,67,247
351,1279875,-170.7,0.0,14.4,2.1,254.6,0.000000,0.000000,0.00,0.0,0.0,1.2,-0.07,0.24,0.90,37.01,-101.69,-22.47,55,67,247
352,1279973,-170.7,0.0,14.9,1.4,254.7,0.000000,0.000000,0.00,0.0,0.0,1.2,-0.05,0.26,0.86,36.73,-97.63,-21.14,55,67,247
353,1280070,-170.7,0.0,15.4,0.7,254.8,0.000000,0.000000,0.00,0.0,0.0,1.2,-0.01,0.27,0.84,36.10,-91.96,-19.25,55,67,247
354,1280167,-170.7,0.0,15.9,-0.1,254.9,0.000000,0.000000,0.00,0.0,0.0,1.2,0.02,0.29,0.84,35.89,-85.52,-18.90,55,67,247
355,1280265,-170.7,0.0,16.4,-0.9,254.9,0.000000,0.000000,0.00,0.0,0.0,1.2,0.05,0.30,0.86,36.24,-78.52,-18.13,55,67,247
356,1280362,-170.7,0.0,16.8,-1.6,255.0,0.000000,0.000000,0.00,0.0,0.0,1.2,0.07,0.30,0.90,35.61,-76.21,-16.80,55,67,247
357,1280460,-170.7,0.0,17.2,-2.4,255.1,0.000000,0.000000,0.00,0.0,0.0,1.2,0.09,0.30,0.90,32.81,-76.49,-15.75,55,67,247
358,1280557,-170.7,0.0,17.6,-3.3,255.3,0.000000,0.000000,0.00,0.0,0.0,1.2,0.11,0.29,0.91,28.68,-78.87,-14.49,55,67,247
359,1280654,-170.7,0.0,17.8,-4.2,255.4,0.000000,0.000000,0.00,0.0,0.0,1.2,0.14,0.29,0.91,23.57,-82.30,-13.51,55,67,247
360,1280752,-170.7,0.0,18.0,-5.1,255.4,0.000000,0.000000,0.00,0.0,0.0,1.2,0.15,0.28,0.90,17.97,-84.47,-13.72,55,67,247
361,1280849,-170.7,0.0,18.1,-6.0,255.5,0.000000,0.000000,0.00,0.0,0.0,1.2,0.14,0.28,0.92,12.86,-86.71,-14.77,55,67,247
362,1280946,-170.7,0.0,18.2,-6.8,255.5,0.000000,0.000000,0.00,0.0,0.0,1.2,0.14,0.29,0.94,9.92,-90.84,-15.68,55,67,247
363,1281044,-170.7,0.0,18.3,-7.7,255.5,0.000000,0.000000,0.00,0.0,0.0,1.2,0.14,0.29,0.95,8.52,-95.60,-16.45,55,67,247
364,1281141,-170.7,0.0,18.4,-8.6,255.5,0.000000,0.000000,0.00,0.0,0.0,1.2,0.15,0.30,0.94,8.59,-102.11,-17.29,55,67,247
365,1281238,-170.7,0.0,18.6,-9.4,255.4,0.000000,0.000000,0.00,0.0,0.0,1.2,0.16,0.32,0.90,10.97,-105.19,-16.94,55,67,247
366,1281336,-170.7,0.0,18.9,-10.3,255.4,0.000000,0.000000,0.00,0.0,0.0,1.2,0.17,0.34,0.85,14.61,-104.07,-15.82,55,67,247
367,1281433,-170.7,0.0,19.3,-11.3,255.3,0.000000,0.000000,0.00,0.0,0.0,1.2,0.19,0.34,0.80,16.85,-99.31,-14.21,55,67,247
368,1281530,-170.7,0.0,19.8,-12.2,255.2,0.000000,0.000000,0.00,0.0,0.0,1.2,0.22,0.35,0.80,17.06,-93.71,-13.72,55,67,247
369,1281628,-170.7,0.0,20.2,-13.1,255.1,0.000000,0.000000,0.00,0.0,0.0,1.2,0.26,0.35,0.79,13.77,-87.69,-12.88,55,67,247
370,1281725,-170.7,0.0,20.5,-13.9,255.1,0.000000,0.000000,0.00,0.0,0.0,1.2,0.27,0.34,0.82,8.45,-82.23,-11.06,55,67,247
371,1281822,-170.7,0.0,20.7,-14.7,255.0,0.000000,0.000000,0.00,0.0,0.0,1.2,0.29,0.35,0.86,2.50,-80.62,-9.59,55,67,247
372,1281920,-170.7,0.0,20.8,-15.5,255.0,0.000000,0.000000,0.00,0.0,0.0,1.2,0.28,0.35,0.86,-2.61,-81.32,-8.12,55,67,247
373,1282017,-170.7,0.0,21.0,-16.3,255.0,0.000000,0.000000,0.00,0.0,0.0,1.2,0.29,0.35,0.84,-6.95,-84.33,-6.51,55,67,247
374,1282114,-170.7,0.0,21.0,-17.2,254.9,0.000000,0.000000,0.00,0.0,0.0,1.2,0.30,0.34,0.81,-12.55,-88.46,-6.02,55,67,247
375,1282212,-170.7,0.0,21.1,-18.1,254.8,0.000000,0.000000,0.00,0.0,0.0,1.2,0.31,0.33,0.77,-18.22,-90.56,-6.93,55,67,247
376,1282309,-170.7,0.0,21.1,-18.9,254.7,0.000000,0.000000,0.00,0.0,0.0,1.2,0.32,0.33,0.78,-20.04,-86.71,-8.05,55,67,247
377,1282406,-170.7,0.0,21.1,-19.7,254.7,0.000000,0.000000,0.00,0.0,0.0,1.2,0.33,0.32,0.79,-18.57,-81.46,-7.84,55,67,247
378,1282504,-170.7,0.0,21.0,-20.5,254.7,0.000000,0.000000,0.00,0.0,0.0,1.2,0.36,0.31,0.83,-17.38,-78.24,-7.77,55,67,247
379,1282601,-170.7,0.0,21.0,-21.2,254.6,0.000000,0.000000,0.00,0.0,0.0,1.2,0.38,0.31,0.84,-16.75,-77.82,-9.17,55,67,247
380,1282698,-170.7,0.0,20.9,-22.0,254.6,0.000000,0.000000,0.00,0.0,0.0,1.2,0.41,0.33,0.84,-16.61,-77.05,-9.80,55,67,247
381,1282796,-170.7,0.0,21.0,-22.7,254.5,0.000000,0.000000,0.00,0.0,0.0,1.2,0.39,0.34,0.85,-15.07,-76.21,-9.66,55,67,247
382,1282893,-170.7,0.0,21.1,-23.3,254.4,0.000000,0.000000,0.00,0.0,0.0,1.2,0.39,0.37,0.85,-13.67,-78.38,-8.68,55,67,247
383,1282990,-170.7,0.0,21.2,-23.9,254.3,0.000000,0.000000,0.00,0.0,0.0,1.2,0.38,0.39,0.83,-13.74,-81.88,-6.16,55,67,247
384,1283088,-170.7,0.0,21.4,-24.6,254.2,0.000000,0.000000,0.00,0.0,0.0,1.2,0.41,0.38,0.78,-15.91,-81.46,-1.26,55,67,247
385,1283185,-170.7,0.0,21.5,-25.5,254.1,0.000000,0.000000,0.00,0.0,0.0,1.2,0.43,0.37,0.77,-19.55,-82.23,3.71,55,67,247
386,1283282,-170.7,0.0,21.5,-26.2,254.1,0.000000,0.000000,0.00,0.0,0.0,1.2,0.44,0.36,0.75,-26.83,-80.90,7.49,55,67,247
387,1283380,-170.7,0.0,21.5,-27.1,254.1,0.000000,0.000000,0.00,0.0,0.0,1.2,0.45,0.34,0.70,-35.30,-76.77,11.41,55,67,247
388,1283477,-170.7,0.0,21.3,-27.9,254.1,0.000000,0.000000,0.00,0.0,0.0,1.2,0.46,0.33,0.69,-43.49,-70.61,14.63,55,67,247
389,1283574,-170.7,0.0,21.0,-28.7,254.3,0.000000,0.000000,0.00,0.0,0.0,1.2,0.48,0.33,0.69,-50.84,-64.10,17.15,55,67,247
390,1283672,-170.7,0.0,20.6,-29.4,254.4,0.000000,0.000000,0.00,0.0,0.0,1.2,0.50,0.34,0.70,-56.93,-57.10,20.37,55,67,247
391,1283769,-170.7,0.0,20.2,-30.0,254.6,0.000000,0.000000,0.00,0.0,0.0,1.2,0.53,0.32,0.72,-61.90,-49.61,23.80,55,67,247
392,1283867,-170.7,0.0,19.6,-30.6,254.9,0.000000,0.000000,0.00,0.0,0.0,1.2,0.55,0.30,0.77,-64.35,-43.52,26.46,55,67,247
393,1283964,-170.7,0.0,18.9,-31.1,255.3,0.000000,0.000000,0.00,0.0,0.0,1.2,0.54,0.29,0.80,-64.49,-40.23,30.73,55,67,247
394,1284061,-170.7,0.0,18.1,-31.6,255.9,0.000000,0.000000,0.00,0.0,0.0,1.2,0.54,0.26,0.80,-61.41,-35.61,34.16,55,67,247
395,1284159,-170.7,0.0,17.3,-32.0,256.5,0.000000,0.000000,0.00,0.0,0.0,1.2,0.55,0.23,0.81,-57.63,-31.41,34.86,55,67,247
396,1284256,-170.7,0.0,16.5,-32.4,257.0,0.000000,0.000000,0.00,0.0,0.0,1.2,0.57,0.21,0.78,-55.60,-28.47,35.91,55,67,247
397,1284353,-170.7,0.0,15.7,-32.9,257.6,0.000000,0.000000,0.00,0.0,0.0,1.2,0.60,0.18,0.74,-55.60,-23.50,36.96,55,67,247
398,1284451,-170.7,0.0,14.8,-33.3,258.2,0.000000,0.000000,0.00,0.0,0.0,1.2,0.63,0.16,0.69,-59.03,-14.05,36.33,55,67,247
399,1284548,-170.7,0.0,13.9,-33.7,258.8,0.000000,0.000000,0.00,0.0,0.0,1.2,0.65,0.14,0.68,-65.89,-2.92,36.40,55,67,247
400,1284645,-170.7,0.0,12.8,-34.0,259.5,0.000000,0.000000,0.00,0.0,0.0,1.2,0.64,0.13,0.66,-72.96,10.94,36.96,55,67,247
401,1284743,-170.7,0.0,11.8,-34.1,260.1,0.000000,0.000000,0.00,0.0,0.0,1.2,0.62,0.11,0.65,-77.93,28.16,37.17,55,67,247
402,1284840,-170.7,0.0,10.6,-34.0,260.8,0.000000,0.000000,0.00,0.0,0.0,1.2,0.61,0.10,0.67,-80.17,47.27,36.89,55,67,247
403,1284937,-170.7,0.0,9.3,-33.6,261.6,0.000000,0.000000,0.00,0.0,0.0,1.2,0.57,0.08,0.73,-81.50,64.70,35.28,55,67,247
404,1285035,-170.7,0.0,8.1,-32.9,262.3,0.000000,0.000000,0.00,0.0,0.0,1.2,0.49,0.08,0.87,-81.92,71.35,34.58,55,67,247
405,1285132,-170.7,0.0,6.9,-31.8,263.1,0.000000,0.000000,0.00,0.0,0.0,1.2,0.43,0.09,0.98,-82.97,62.39,36.82,55,67,247
406,1285229,-170.7,0.0,5.7,-30.8,263.7,0.000000,0.000000,0.00,0.0,0.0,1.2,0.39,0.09,1.01,-83.95,47.48,41.58,55,67,247
407,1285327,-170.7,0.0,4.5,-30.0,264.4,0.000000,0.000000,0.00,0.0,0.0,1.2,0.44,0.06,0.99,-84.86,32.99,47.88,55,67,247
408,1285424,-170.7,0.0,3.3,-29.5,265.1,0.000000,0.000000,0.00,0.0,0.0,1.2,0.49,0.03,0.93,-85.56,23.82,52.71,55,67,247
409,1285521,-170.7,0.0,2.0,-29.4,265.9,0.000000,0.000000,0.00,0.0,0.0,1.2,0.52,0.02,0.86,-87.10,20.46,56.21,55,67,247
410,1285619,-170.7,0.0,0.8,-29.3,266.6,0.000000,0.000000,0.00,0.0,0.0,1.2,0.55,-0.00,0.82,-90.25,23.47,59.22,55,67,247
411,1285716,-170.7,0.0,-0.6,-29.2,267.4,0.000000,0.000000,0.00,0.0,0.0,1.2,0.51,-0.03,0.81,-92.28,26.97,61.74,55,67,247
412,1285813,-170.7,0.0,-1.9,-28.9,268.2,0.000000,0.000000,0.00,0.0,0.0,1.2,0.49,-0.04,0.78,-92.77,34.32,63.42,55,67,247
413,1285911,-170.7,0.0,-3.2,-28.6,269.0,0.000000,0.000000,0.00,0.0,0.0,1.2,0.49,-0.06,0.77,-93.96,44.54,65.66,55,67,247
414,1286008,-170.7,0.0,-4.6,-28.2,269.8,0.000000,0.000000,0.00,0.0,0.0,1.2,0.51,-0.09,0.78,-94.38,55.18,67.83,55,67,247
415,1286105,-170.7,0.0,-6.1,-27.7,270.6,0.000000,0.000000,0.00,0.0,0.0,1.2,0.51,-0.13,0.80,-94.10,65.40,70.21,55,67,247
416,1286203,-170.7,0.0,-7.5,-27.2,271.4,0.000000,0.000000,0.00,0.0,0.0,1.2,0.50,-0.17,0.84,-92.70,75.06,72.31,55,67,247
417,1286300,-170.7,0.0,-8.9,-26.3,272.1,0.000000,0.000000,0.00,0.0,0.0,1.2,0.45,-0.20,0.91,-90.32,80.94,73.29,55,67,247
418,1286397,-170.7,0.0,-10.3,-25.3,272.8,0.000000,0.000000,0.00,0.0,0.0,1.2,0.42,-0.22,0.97,-89.34,80.66,73.36,55,67,247
419,1286495,-170.7,0.0,-11.6,-24.3,273.4,0.000000,0.000000,0.00,0.0,0.0,1.2,0.39,-0.23,1.01,-89.90,75.41,73.99,55,67,247
420,1286592,-170.7,0.0,-12.8,-23.3,274.0,0.000000,0.000000,0.00,0.0,0.0,1.2,0.37,-0.24,1.02,-91.16,67.43,75.60,55,67,247
421,1286689,-170.7,0.0,-13.9,-22.4,274.5,0.000000,0.000000,0.00,0.0,0.0,1.2,0.34,-0.24,1.00,-93.12,59.10,77.77,55,67,247
422,1286787,-170.7,0.0,-15.0,-21.7,275.0,0.000000,0.000000,0.00,0.0,0.0,1.2,0.35,-0.26,0.97,-95.08,52.87,79.87,55,67,247
423,1286884,-170.7,0.0,-16.2,-21.2,275.6,0.000000,0.000000,0.00,0.0,0.0,1.2,0.35,-0.29,0.98,-95.99,47.34,80.01,55,67,247
424,1286981,-170.7,0.0,-17.4,-20.7,276.1,0.000000,0.000000,0.00,0.0,0.0,1.2,0.35,-0.31,0.97,-94.87,42.02,79.87,55,67,247
425,1287079,-170.7,0.0,-18.5,-20.3,276.7,0.000000,0.000000,0.00,0.0,0.0,1.2,0.34,-0.33,0.94,-92.84,39.29,79.59,55,67,247
426,1287176,-170.7,0.0,-19.7,-19.9,277.2,0.000000,0.000000,0.00,0.0,0.0,1.2,0.33,-0.35,0.91,-90.53,37.75,78.61,55,67,247
427,1287274,-170.7,0.0,-20.8,-19.6,277.8,0.000000,0.000000,0.00,0.0,0.0,1.2,0.32,-0.36,0.89,-89.62,36.91,77.14,55,67,247
428,1287371,-170.7,0.0,-21.9,-19.2,278.2,0.000000,0.000000,0.00,0.0,0.0,1.2,0.29,-0.37,0.86,-88.22,36.70,75.81,55,67,247
429,1287468,-170.7,0.0,-22.9,-18.9,278.7,0.000000,0.000000,0.00,0.0,0.0,1.2,0.29,-0.38,0.84,-86.40,38.52,75.32,55,67,247
430,1287566,-170.7,0.0,-24.0,-18.5,279.2,0.000000,0.000000,0.00,0.0,0.0,1.2,0.28,-0.41,0.82,-84.79,41.18,75.60,55,67,247
431,1287663,-170.7,0.0,-25.1,-18.2,279.6,0.000000,0.000000,0.00,0.0,0.0,1.2,0.28,-0.44,0.79,-84.02,45.87,75.39,55,67,247
432,1287760,-170.7,0.0,-26.0,-17.9,280.0,0.000000,0.000000,0.00,0.0,0.0,1.2,0.29,-0.47,0.78,-87.87,49.58,73.36,55,67,247
433,1287858,-170.7,0.0,-27.0,-17.7,280.3,0.000000,0.000000,0.00,0.0,0.0,1.2,0.30,-0.48,0.76,-93.19,52.52,70.77,55,67,247
434,1287955,-170.7,0.0,-27.9,-17.4,280.5,0.000000,0.000000,0.00,0.0,0.0,1.2,0.30,-0.48,0.77,-99.28,55.88,67.69,55,67,247
435,1288052,-170.7,0.0,-28.7,-17.1,280.6,0.000000,0.000000,0.00,0.0,0.0,1.2,0.27,-0.49,0.83,-104.04,57.77,64.33,55,67,247
436,1288150,-170.7,0.0,-29.3,-16.6,280.6,0.000000,0.000000,0.00,0.0,0.0,1.2,0.22,-0.49,0.90,-105.23,53.71,62.16,55,67,247
437,1288247,-170.7,0.0,-29.7,-15.9,280.6,0.000000,0.000000,0.00,0.0,0.0,1.2,0.17,-0.50,0.93,-104.11,46.15,61.95,55,67,247
438,1288344,-170.7,0.0,-30.1,-15.3,280.7,0.000000,0.000000,0.00,0.0,0.0,1.2,0.15,-0.51,0.94,-101.87,35.30,61.32,55,67,247
439,1288442,-170.7,0.0,-30.5,-14.9,280.8,0.000000,0.000000,0.00,0.0,0.0,1.2,0.17,-0.52,0.90,-99.84,27.53,60.48,55,67,247
440,1288539,-170.7,0.0,-30.9,-14.5,280.9,0.000000,0.000000,0.00,0.0,0.0,1.2,0.17,-0.53,0.87,-96.83,23.47,60.34,55,67,247
441,1288636,-170.7,0.0,-31.2,-14.3,281.0,0.000000,0.000000,0.00,0.0,0.0,1.2,0.17,-0.55,0.84,-94.66,22.49,61.04,55,67,247
442,1288734,-170.7,0.0,-31.6,-14.0,281.1,0.000000,0.000000,0.00,0.0,0.0,1.2,0.15,-0.57,0.79,-89.97,23.75,62.86,55,67,247
443,1288831,-170.7,0.0,-32.0,-13.7,281.2,0.000000,0.000000,0.00,0.0,0.0,1.2,0.14,-0.58,0.73,-88.92,26.62,63.84,55,67,247
444,1288928,-170.7,0.0,-32.3,-13.4,281.2,0.000000,0.000000,0.00,0.0,0.0,1.2,0.16,-0.61,0.75,-88.85,30.68,64.96,55,67,247
445,1289026,-170.7,0.0,-32.7,-13.1,281.3,0.000000,0.000000,0.00,0.0,0.0,1.2,0.15,-0.64,0.72,-88.22,32.15,65.24,55,67,247
446,1289123,-170.7,0.0,-33.1,-12.8,281.3,0.000000,0.000000,0.00,0.0,0.0,1.2,0.16,-0.66,0.79,-87.10,35.58,62.51,55,67,247
447,1289220,-170.7,0.0,-33.4,-12.4,281.3,0.000000,0.000000,0.00,0.0,0.0,1.2,0.11,-0.69,0.81,-84.37,31.87,59.15,55,67,247
448,1289318,-170.7,0.0,-33.6,-12.0,281.3,0.000000,0.000000,0.00,0.0,0.0,1.2,0.09,-0.70,0.84,-81.29,27.60,56.14,55,67,247
449,1289415,-170.7,0.0,-33.8,-11.6,281.3,0.000000,0.000000,0.00,0.0,0.0,1.2,0.07,-0.71,0.81,-76.46,22.49,55.86,55,67,247
450,1289512,-170.7,0.0,-34.0,-11.3,281.3,0.000000,0.000000,0.00,0.0,0.0,1.2,0.07,-0.72,0.79,-72.33,18.99,54.04,55,67,247
451,1289610,-170.7,0.0,-34.2,-11.0,281.3,0.000000,0.000000,0.00,0.0,0.0,1.2,0.08,-0.74,0.80,-70.30,15.70,47.04,55,67,247
452,1289707,-170.7,0.0,-34.3,-10.9,281.3,0.000000,0.000000,0.00,0.0,0.0,1.2,0.12,-0.74,0.79,-68.13,11.08,38.15,55,67,247
453,1289804,-170.7,0.0,-34.5,-10.9,281.2,0.000000,0.000000,0.00,0.0,0.0,1.2,0.11,-0.75,0.79,-64.84,6.88,31.15,55,67,247
454,1289902,-170.7,0.0,-34.5,-10.9,281.1,0.000000,0.000000,0.00,0.0,0.0,1.2,0.10,-0.75,0.79,-59.10,4.08,25.62,55,67,247
455,1289999,-170.7,0.0,-34.5,-10.9,280.9,0.000000,0.000000,0.00,0.0,0.0,1.2,0.08,-0.75,0.78,-51.75,0.79,20.65,55,67,247
456,1290096,-170.7,0.0,-34.4,-10.9,280.7,0.000000,0.000000,0.00,0.0,0.0,1.2,0.08,-0.76,0.77,-41.81,-0.96,14.28,55,67,247
457,1290194,-170.7,0.0,-34.2,-11.1,280.5,0.000000,0.000000,0.00,0.0,0.0,1.2,0.09,-0.76,0.74,-33.27,-2.85,6.93,55,67,247
458,1290291,-170.7,0.0,-34.0,-11.2,280.2,0.000000,0.000000,0.00,0.0,0.0,1.2,0.09,-0.76,0.72,-25.78,-2.92,1.89,55,67,247
459,1290388,-170.7,0.0,-33.7,-11.4,279.9,0.000000,0.000000,0.00,0.0,0.0,1.2,0.08,-0.75,0.71,-19.83,-1.94,-2.17,55,67,247
460,1290486,-170.7,0.0,-33.3,-11.6,279.5,0.000000,0.000000,0.00,0.0,0.0,1.2,0.07,-0.73,0.70,-14.93,-1.94,-5.39,55,67,247
461,1290583,-170.7,0.0,-32.8,-11.7,279.1,0.000000,0.000000,0.00,0.0,0.0,1.2,0.06,-0.72,0.65,-6.46,0.02,-6.16,55,67,247
462,1290681,-170.7,0.0,-32.3,-11.8,278.6,0.000000,0.000000,0.00,0.0,0.0,1.2,0.06,-0.72,0.65,-0.02,3.31,-7.70,55,67,247
463,1290778,-170.7,0.0,-31.8,-11.9,278.1,0.000000,0.000000,0.00,0.0,0.0,1.2,0.05,-0.72,0.65,2.71,3.59,-9.52,55,67,247
464,1290875,-170.7,0.0,-31.2,-11.9,277.6,0.000000,0.000000,0.00,0.0,0.0,1.2,0.04,-0.72,0.68,7.47,3.80,-10.85,55,67,247
465,1290973,-170.7,0.0,-30.5,-11.9,277.1,0.000000,0.000000,0.00,0.0,0.0,1.2,0.04,-0.72,0.71,14.75,2.96,-12.04,55,67,247
466,1291070,-170.7,0.0,-29.7,-12.0,276.5,0.000000,0.000000,0.00,0.0,0.0,1.2,0.06,-0.74,0.74,24.20,1.98,-13.51,55,67,247
467,1291167,-170.7,0.0,-28.9,-12.1,276.0,0.000000,0.000000,0.00,0.0,0.0,1.2,0.08,-0.77,0.80,36.73,-0.19,-16.17,55,67,247
468,1291265,-170.7,0.0,-27.8,-12.3,275.4,0.000000,0.000000,0.00,0.0,0.0,1.2,0.04,-0.80,0.83,52.62,-6.63,-19.32,55,67,247
469,1291362,-170.7,0.0,-26.6,-12.5,274.7,0.000000,0.000000,0.00,0.0,0.0,1.2,0.10,-0.82,0.84,70.82,-10.83,-26.67,55,67,247
470,1291459,-170.7,0.0,-25.3,-13.0,274.0,0.000000,0.000000,0.00,0.0,0.0,1.2,0.12,-0.82,0.80,88.95,-15.31,-35.21,55,67,247
471,1291557,-170.7,0.0,-24.0,-13.6,273.0,0.000000,0.000000,0.00,0.0,0.0,1.2,0.14,-0.80,0.79,107.43,-13.07,-43.61,55,67,247
472,1291654,-170.7,0.0,-22.8,-14.1,272.1,0.000000,0.000000,0.00,0.0,0.0,1.2,0.13,-0.77,0.77,124.37,-9.36,-50.75,55,67,247
473,1291751,-170.7,0.0,-21.8,-14.4,271.4,0.000000,0.000000,0.00,0.0,0.0,1.2,0.11,-0.73,0.75,137.67,-4.32,-55.23,55,67,247
474,1291849,-170.7,0.0,-20.7,-14.7,270.7,0.000000,0.000000,0.00,0.0,0.0,1.2,0.12,-0.74,0.74,147.12,2.40,-60.20,55,67,247
475,1291946,-170.7,0.0,-19.7,-14.8,269.9,0.000000,0.000000,0.00,0.0,0.0,1.2,0.10,-0.70,0.73,147.19,4.99,-61.39,55,67,247
476,1292043,-170.7,0.0,-18.6,-14.9,269.2,0.000000,0.000000,0.00,0.0,0.0,1.2,0.10,-0.67,0.74,143.97,9.12,-61.11,55,67,247
477,1292141,-170.7,0.0,-17.7,-14.9,268.5,0.000000,0.000000,0.00,0.0,0.0,1.2,0.09,-0.63,0.75,135.08,9.33,-60.34,55,67,247
478,1292238,-170.7,0.0,-16.9,-14.9,267.9,0.000000,0.000000,0.00,0.0,0.0,1.2,0.08,-0.59,0.75,126.89,11.92,-57.75,55,67,247
479,1292335,-170.7,0.0,-16.1,-14.8,267.4,0.000000,0.000000,0.00,0.0,0.0,1.2,0.09,-0.56,0.78,117.02,12.76,-54.25,55,67,247
480,1292433,-170.7,0.0,-15.5,-14.7,266.8,0.000000,0.000000,0.00,0.0,0.0,1.2,0.09,-0.52,0.80,105.96,9.96,-50.26,55,67,247
481,1292530,-170.7,0.0,-14.9,-14.7,266.3,0.000000,0.000000,0.00,0.0,0.0,1.2,0.10,-0.49,0.82,94.34,7.37,-45.36,55,67,247
482,1292627,-170.7,0.0,-14.5,-14.7,265.8,0.000000,0.000000,0.00,0.0,0.0,1.2,0.11,-0.46,0.83,81.67,5.20,-40.25,55,67,247
483,1292725,-170.7,0.0,-14.2,-14.7,265.4,0.000000,0.000000,0.00,0.0,0.0,1.2,0.13,-0.43,0.84,67.74,2.89,-35.07,55,67,247
484,1292822,-170.7,0.0,-14.1,-14.8,265.1,0.000000,0.000000,0.00,0.0,0.0,1.2,0.13,-0.40,0.84,53.95,0.93,-30.10,55,67,247
485,1292919,-170.7,0.0,-14.0,-14.8,264.8,0.000000,0.000000,0.00,0.0,0.0,1.2,0.12,-0.38,0.86,42.40,0.16,-25.48,55,67,247
486,1293017,-170.7,0.0,-13.9,-14.7,264.4,0.000000,0.000000,0.00,0.0,0.0,1.2,0.12,-0.37,0.87,33.65,0.02,-20.72,55,67,247
487,1293114,-170.7,0.0,-14.0,-14.7,264.1,0.000000,0.000000,0.00,0.0,0.0,1.2,0.13,-0.37,0.86,27.28,-0.05,-15.89,55,67,247
488,1293211,-170.7,0.0,-14.2,-14.7,264.0,0.000000,0.000000,0.00,0.0,0.0,1.2,0.15,-0.38,0.87,23.50,1.63,-12.25,55,67,247
489,1293309,-170.7,0.0,-14.4,-14.7,263.9,0.000000,0.000000,0.00,0.0,0.0,1.2,0.16,-0.38,0.88,22.52,3.94,-10.43,55,67,247
490,1293406,-170.7,0.0,-14.5,-14.7,263.7,0.000000,0.000000,0.00,0.0,0.0,1.2,0.17,-0.39,0.90,23.99,6.74,-9.66,55,67,247
491,1293503,-170.7,0.0,-14.7,-14.7,263.6,0.000000,0.000000,0.00,0.0,0.0,1.2,0.16,-0.41,0.93,28.82,8.63,-9.66,55,67,247
492,1293601,-170.7,0.0,-14.7,-14.6,263.4,0.000000,0.000000,0.00,0.0,0.0,1.2,0.17,-0.41,0.96,34.77,8.14,-11.20,55,67,247
493,1293698,-170.7,0.0,-14.7,-14.6,263.2,0.000000,0.000000,0.00,0.0,0.0,1.2,0.18,-0.42,0.97,39.32,7.09,-12.25,55,67,247
494,1293796,-170.7,0.0,-14.7,-14.5,263.0,0.000000,0.000000,0.00,0.0,0.0,1.2,0.17,-0.41,0.99,42.47,5.13,-14.07,55,67,247
495,1293893,-170.7,0.0,-14.6,-14.5,262.8,0.000000,0.000000,0.00,0.0,0.0,1.2,0.16,-0.40,1.00,46.25,2.40,-15.89,55,67,247
496,1293990,-170.7,0.0,-14.4,-14.4,262.6,0.000000,0.000000,0.00,0.0,0.0,1.2,0.16,-0.39,0.99,50.73,0.30,-16.45,55,67,247
497,1294088,-170.7,0.0,-14.2,-14.4,262.4,0.000000,0.000000,0.00,0.0,0.0,1.2,0.16,-0.39,0.97,54.93,-0.82,-16.80,55,67,247
498,1294185,-170.7,0.0,-14.1,-14.4,262.2,0.000000,0.000000,0.00,0.0,0.0,1.2,0.17,-0.39,0.95,58.92,-0.33,-17.50,55,67,247
499,1294282,-170.7,0.0,-14.0,-14.4,262.1,0.000000,0.000000,0.00,0.0,0.0,1.2,0.18,-0.41,0.96,62.56,1.21,-19.60,55,67,247
500,1294380,-170.7,0.0,-13.8,-14.4,261.9,0.000000,0.000000,0.00,0.0,0.0,1.2,0.17,-0.39,0.98,65.08,0.79,-22.33,55,67,247
501,1294477,-170.7,0.0,-13.5,-14.3,261.6,0.000000,0.000000,0.00,0.0,0.0,1.2,0.16,-0.37,0.97,67.95,0.30,-23.45,55,67,247
