count,timestamp,vane,wing,roll,pitch,yaw,lat,lon,speed,drag,lift,thrust,acc_x,acc_y,acc_z,gyro_x,gyro_y,gyro_z,hours,min,sec
0,63236055,-170.7,0.0,-0.9,-0.7,327.2,0.000000,0.000000,0.00,0.0,0.0,1.2,0.01,-0.01,1.00,-0.16,0.65,-0.49,55,67,247
1,63236152,-170.7,0.0,-1.0,-0.8,327.0,0.000000,0.000000,0.00,0.0,0.0,1.2,0.01,-0.01,1.00,-0.09,0.58,-0.49,55,67,247
2,63236250,-170.7,0.0,-1.1,-0.8,326.9,0.000000,0.000000,0.00,0.0,0.0,1.2,0.01,-0.01,1.00,-0.09,0.65,-0.49,55,67,247
3,63236347,-170.7,0.0,-1.1,-0.8,326.7,0.000000,0.000000,0.00,0.0,0.0,1.2,0.01,-0.01,1.00,-0.09,0.65,-0.42,55,67,247
4,63236444,-170.7,0.0,-1.1,-0.9,326.6,0.000000,0.000000,0.00,0.0,0.0,1.2,0.01,-0.01,1.00,-0.09,0.65,-0.49,55,67,247
5,63236542,-170.7,0.0,-1.1,-0.9,326.5,0.000000,0.000000,0.00,0.0,0.0,1.2,0.01,-0.01,1.00,-0.09,0.65,-0.49,55,67,247
6,63236639,-170.7,0.0,-0.9,-0.7,326.6,0.000000,0.000000,0.00,0.0,0.0,1.2,0.01,-0.02,1.00,-0.09,0.72,-0.49,55,67,247
7,63236737,-170.7,0.0,-0.8,-0.7,326.6,0.000000,0.000000,0.00,0.0,0.0,1.2,0.01,-0.01,1.00,-0.09,0.65,-0.42,55,67,247
8,63236834,-170.7,0.0,-0.8,-0.7,326.7,0.000000,0.000000,0.00,0.0,0.0,1.2,0.01,-0.02,1.00,-0.02,0.65,-0.49,55,67,247
9,63236931,-170.7,0.0,-0.8,-0.6,326.7,0.000000,0.000000,0.00,0.0,0.0,1.2,0.01,-0.01,1.00,-0.02,0.65,-0.42,55,67,247
10,63237029,-170.7,0.0,-0.8,-0.6,326.7,0.000000,0.000000,0.00,0.0,0.0,1.2,0.01,-0.02,1.00,-0.16,0.65,-0.49,55,67,247
11,63237126,-170.7,0.0,-0.9,-0.7,326.7,0.000000,0.000000,0.00,0.0,0.0,1.2,0.01,-0.01,1.00,-0.16,0.72,-0.56,55,67,247
12,63237223,-170.7,0.0,-0.9,-0.7,326.6,0.000000,0.000000,0.00,0.0,0.0,1.2,0.01,-0.02,1.00,-0.09,0.58,-0.49,55,67,247
13,63237321,-170.7,0.0,-0.9,-0.7,326.5,0.000000,0.000000,0.00,0.0,0.0,1.2,0.01,-0.01,1.00,-0.02,0.65,-0.49,55,67,247
14,63237418,-170.7,0.0,-0.9,-0.7,326.5,0.000000,0.000000,0.00,0.0,0.0,1.2,0.01,-0.02,1.00,-0.02,0.65,-0.49,55,67,247
15,63237515,-170.7,0.0,-0.9,-0.7,326.5,0.000000,0.000000,0.00,0.0,0.0,1.2,0.01,-0.01,1.00,-0.09,0.65,-0.49,55,67,247
16,63237613,-170.6,0.0,-0.8,-0.6,326.5,0.000000,0.000000,0.00,0.0,0.0,1.2,0.01,-0.01,1.00,-0.02,0.65,-0.42,55,67,247
17,63237710,-170.6,0.0,-0.8,-0.6,326.6,0.000000,0.000000,0.00,0.0,0.0,1.2,0.01,-0.01,1.00,-0.02,0.65,-0.49,55,67,247
18,63237807,-170.6,0.0,-0.8,-0.6,326.6,0.000000,0.000000,0.00,0.0,0.0,1.2,0.01,-0.01,1.00,-0.02,0.58,-0.35,55,67,247
19,63237905,-170.6,0.0,-0.8,-0.6,326.7,0.000000,0.000000,0.00,0.0,0.0,1.2,0.01,-0.02,1.00,-0.09,0.51,-0.42,55,67,247
20,63238002,-170.6,0.0,-0.8,-0.6,326.7,0.000000,0.000000,0.00,0.0,0.0,1.2,0.01,-0.01,1.00,-0.09,0.65,-0.49,55,67,247
21,63238100,-170.6,0.0,-0.8,-0.6,326.7,0.000000,0.000000,0.00,0.0,0.0,1.2,0.01,-0.02,1.00,-0.09,0.65,-0.49,55,67,247
22,63238197,-170.6,0.0,-0.8,-0.6,326.7,0.000000,0.000000,0.00,0.0,0.0,1.2,0.01,-0.02,1.00,-0.09,0.72,-0.49,55,67,247
23,63238294,-170.6,0.0,-0.8,-0.6,326.7,0.000000,0.000000,0.00,0.0,0.0,1.2,0.01,-0.02,1.00,-0.09,0.65,-0.42,55,67,247
24,63238392,-170.7,0.0,-0.8,-0.6,326.7,0.000000,0.000000,0.00,0.0,0.0,1.2,0.01,-0.02,1.00,-0.09,0.65,-0.42,55,67,247
25,63238489,-170.7,0.0,-0.8,-0.6,326.8,0.000000,0.000000,0.00,0.0,0.0,1.2,0.01,-0.01,1.00,-0.09,0.58,-0.49,55,67,247
26,63238586,-170.7,0.0,-0.8,-0.6,326.8,0.000000,0.000000,0.00,0.0,0.0,1.2,0.01,-0.01,1.00,-0.02,0.58,-0.42,55,67,247
27,63238684,-170.7,0.0,-0.8,-0.7,326.8,0.000000,0.000000,0.00,0.0,0.0,1.2,0.01,-0.01,1.00,-0.09,0.65,-0.56,55,67,247
28,63238781,-170.7,0.0,-0.8,-0.7,326.8,0.000000,0.000000,0.00,0.0,0.0,1.2,0.01,-0.02,1.00,-0.09,0.65,-0.42,55,67,247
29,63238878,-170.7,0.0,-0.8,-0.7,326.8,0.000000,0.000000,0.00,0.0,0.0,1.2,0.01,-0.01,1.00,-0.09,0.65,-0.42,55,67,247
30,63238976,-170.7,0.0,-0.8,-0.7,326.8,0.000000,0.000000,0.00,0.0,0.0,1.2,0.01,-0.01,1.00,-0.02,0.65,-0.49,55,67,247
31,63239073,-170.7,0.0,-0.8,-0.6,326.8,0.000000,0.000000,0.00,0.0,0.0,1.2,0.01,-0.01,1.00,-0.02,0.65,-0.49,55,67,247
32,63239170,-170.7,0.0,-0.8,-0.6,326.8,0.000000,0.000000,0.00,0.0,0.0,1.2,0.01,-0.01,1.00,-0.02,0.58,-0.42,55,67,247
33,63239268,-170.7,0.0,-0.8,-0.6,326.8,0.000000,0.000000,0.00,0.0,0.0,1.2,0.01,-0.02,1.00,-0.09,0.65,-0.49,55,67,247
34,63239365,-170.7,0.0,-0.9,-0.6,326.8,0.000000,0.000000,0.00,0.0,0.0,1.2,0.01,-0.02,1.00,-0.02,0.65,-0.49,55,67,247
35,63239463,-170.7,0.0,-0.8,-0.6,326.8,0.000000,0.000000,0.00,0.0,0.0,1.2,0.01,-0.01,1.00,-0.02,0.58,-0.42,55,67,247
36,63239560,-170.7,0.0,-0.8,-0.6,326.9,0.000000,0.000000,0.00,0.0,0.0,1.2,0.01,-0.02,1.00,-0.02,0.58,-0.49,55,67,247
37,63239657,-170.7,0.0,-0.7,-0.6,327.0,0.000000,0.000000,0.00,0.0,0.0,1.2,0.01,-0.02,1.00,-0.09,0.65,-0.49,55,67,247
38,63239755,-170.7,0.0,-0.7,-0.5,327.1,0.000000,0.000000,0.00,0.0,0.0,1.2,0.01,-0.01,1.00,-0.09,0.58,-0.49,55,67,247
39,63239852,-170.7,0.0,-0.7,-0.5,327.2,0.000000,0.000000,0.00,0.0,0.0,1.2,0.01,-0.01,1.00,-0.09,0.65,-0.49,55,67,247
40,63239949,-170.7,0.0,-0.7,-0.5,327.3,0.000000,0.000000,0.00,0.0,0.0,1.2,0.01,-0.01,1.00,-0.09,0.65,-0.42,55,67,247
41,63240047,-170.7,0.0,-0.8,-0.6,327.4,0.000000,0.000000,0.00,0.0,0.0,1.2,0.01,-0.02,1.00,-0.09,0.65,-0.42,55,67,247
42,63240144,-170.7,0.0,-0.8,-0.6,327.3,0.000000,0.000000,0.00,0.0,0.0,1.2,0.01,-0.01,1.00,-0.09,0.65,-0.49,55,67,247
43,63240241,-170.7,0.0,-0.8,-0.7,327.3,0.000000,0.000000,0.00,0.0,0.0,1.2,0.01,-0.01,1.00,-0.09,0.65,-0.42,55,67,247
44,63240339,-170.7,0.0,-0.8,-0.7,327.3,0.000000,0.000000,0.00,0.0,0.0,1.2,0.01,-0.02,1.00,-0.02,0.65,-0.42,55,67,247
45,63240436,-170.7,0.0,-0.8,-0.7,327.3,0.000000,0.000000,0.00,0.0,0.0,1.2,0.01,-0.01,1.00,-0.09,0.65,-0.42,55,67,247
46,63240533,-170.7,0.0,-0.8,-0.7,327.3,0.000000,0.000000,0.00,0.0,0.0,1.2,0.01,-0.01,1.00,-0.09,0.65,-0.42,55,67,247
47,63240631,-170.7,0.0,-0.8,-0.7,327.3,0.000000,0.000000,0.00,0.0,0.0,1.2,0.01,-0.01,1.00,-0.09,0.65,-0.49,55,67,247
48,63240728,-170.7,0.0,-0.8,-0.7,327.3,0.000000,0.000000,0.00,0.0,0.0,1.2,0.01,-0.01,1.00,-0.02,0.58,-0.49,55,67,247
49,63240826,-170.7,0.0,-0.8,-0.7,327.3,0.000000,0.000000,0.00,0.0,0.0,1.2,0.01,-0.01,1.00,-0.09,0.65,-0.49,55,67,247
50,63240923,-170.7,0.0,-0.8,-0.7,327.3,0.000000,0.000000,0.00,0.0,0.0,1.2,0.01,-0.01,1.00,-0.02,0.65,-0.49,55,67,247
51,63241020,-170.7,0.0,-0.9,-0.7,327.4,0.000000,0.000000,0.00,0.0,0.0,1.2,0.01,-0.02,1.00,-0.09,0.65,-0.42,55,67,247
52,63241118,-170.7,0.0,-0.9,-0.7,327.3,0.000000,0.000000,0.00,0.0,0.0,1.2,0.01,-0.02,1.00,-0.09,0.58,-0.49,55,67,247
53,63241215,-170.7,0.0,-0.9,-0.7,327.3,0.000000,0.000000,0.00,0.0,0.0,1.2,0.01,-0.01,1.00,-0.09,0.65,-0.42,55,67,247
54,63241312,-170.7,0.0,-0.9,-0.7,327.2,0.000000,0.000000,0.00,0.0,0.0,1.2,0.01,-0.02,1.00,-0.02,0.65,-0.42,55,67,247
55,63241410,-170.7,0.0,-0.9,-0.7,327.2,0.000000,0.000000,0.00,0.0,0.0,1.2,0.01,-0.01,1.00,-0.02,0.65,-0.49,55,67,247
56,63241507,-170.7,0.0,-0.9,-0.7,327.1,0.000000,0.000000,0.00,0.0,0.0,1.2,0.01,-0.02,1.00,-0.16,0.65,-0.49,55,67,247
57,63241604,-170.7,0.0,-0.8,-0.6,327.2,0.000000,0.000000,0.00,0.0,0.0,1.2,0.01,-0.02,1.00,-0.16,0.65,-0.49,55,67,247
58,63241702,-170.7,0.0,-0.8,-0.6,327.3,0.000000,0.000000,0.00,0.0,0.0,1.2,0.01,-0.01,1.00,-0.02,0.65,-0.42,55,67,247
59,63241799,-170.7,0.0,-0.8,-0.6,327.4,0.000000,0.000000,0.00,0.0,0.0,1.2,0.01,-0.02,1.00,-0.09,0.65,-0.49,55,67,247
60,63241897,-170.7,0.0,-0.7,-0.6,327.4,0.000000,0.000000,0.00,0.0,0.0,1.2,0.01,-0.01,1.00,-0.02,0.58,-0.49,55,67,247
61,63241994,-170.7,0.0,-0.8,-0.6,327.5,0.000000,0.000000,0.00,0.0,0.0,1.2,0.01,-0.02,1.00,-0.09,0.58,-0.49,55,67,247
62,63242091,-170.7,0.0,-0.8,-0.6,327.4,0.000000,0.000000,0.00,0.0,0.0,1.2,0.01,-0.01,1.00,-0.09,0.65,-0.49,55,67,247
63,63242189,-170.7,0.0,-0.9,-0.7,327.3,0.000000,0.000000,0.00,0.0,0.0,1.2,0.01,-0.02,1.00,-0.16,0.65,-0.42,55,67,247
64,63242286,-170.7,0.0,-0.9,-0.7,327.3,0.000000,0.000000,0.00,0.0,0.0,1.2,0.01,-0.01,1.00,-0.02,0.65,-0.42,55,67,247
65,63242383,-170.7,0.0,-0.9,-0.7,327.2,0.000000,0.000000,0.00,0.0,0.0,1.2,0.01,-0.02,1.00,-0.02,0.58,-0.49,55,67,247
66,63242481,-170.7,0.0,-0.9,-0.7,327.2,0.000000,0.000000,0.00,0.0,0.0,1.2,0.01,-0.02,1.00,-0.02,0.65,-0.49,55,67,247
67,63242578,-170.7,0.0,-0.8,-0.6,327.3,0.000000,0.000000,0.00,0.0,0.0,1.2,0.01,-0.02,1.00,-0.09,0.58,-0.49,55,67,247
68,63242675,-170.7,0.0,-0.8,-0.6,327.3,0.000000,0.000000,0.00,0.0,0.0,1.2,0.01,-0.01,1.00,-0.09,0.65,-0.49,55,67,247
69,63242773,-170.7,0.0,-0.8,-0.6,327.4,0.000000,0.000000,0.00,0.0,0.0,1.2,0.01,-0.01,1.00,-0.09,0.65,-0.42,55,67,247
70,63242870,-170.7,0.0,-0.8,-0.6,327.5,0.000000,0.000000,0.00,0.0,0.0,1.2,0.01,-0.02,1.00,-0.09,0.65,-0.42,55,67,247
71,63242967,-170.7,0.0,-0.8,-0.6,327.5,0.000000,0.000000,0.00,0.0,0.0,1.2,0.01,-0.01,1.00,-0.02,0.65,-0.49,55,67,247
72,63243065,-170.7,0.0,-0.9,-0.7,327.4,0.000000,0.000000,0.00,0.0,0.0,1.2,0.01,-0.02,1.00,-0.09,0.65,-0.49,55,67,247
73,63243162,-170.7,0.0,-1.0,-0.8,327.2,0.000000,0.000000,0.00,0.0,0.0,1.2,0.01,-0.01,1.00,-0.09,0.65,-0.49,55,67,247
74,63243260,-170.7,0.0,-1.0,-0.8,327.1,0.000000,0.000000,0.00,0.0,0.0,1.2,0.01,-0.02,1.00,-0.02,0.65,-0.49,55,67,247
75,63243357,-170.7,0.0,-1.0,-0.8,327.0,0.000000,0.000000,0.00,0.0,0.0,1.2,0.01,-0.01,1.00,-0.09,0.65,-0.49,55,67,247
76,63243454,-170.7,0.0,-1.0,-0.8,327.0,0.000000,0.000000,0.00,0.0,0.0,1.2,0.01,-0.01,1.00,-0.09,0.65,-0.49,55,67,247
77,63243552,-170.7,0.0,-1.0,-0.8,326.9,0.000000,0.000000,0.00,0.0,0.0,1.2,0.01,-0.01,1.00,-0.09,0.58,-0.42,55,67,247
78,63243649,-170.7,0.0,-1.0,-0.8,326.8,0.000000,0.000000,0.00,0.0,0.0,1.2,0.01,-0.02,1.00,-0.09,0.65,-0.49,55,67,247
79,63243746,-170.7,0.0,-1.0,-0.7,326.8,0.000000,0.000000,0.00,0.0,0.0,1.2,0.01,-0.01,1.00,-0.09,0.65,-0.49,55,67,247
80,63243844,-170.7,0.0,-1.0,-0.7,326.7,0.000000,0.000000,0.00,0.0,0.0,1.2,0.01,-0.01,1.00,-0.09,0.65,-0.49,55,67,247
81,63243941,-170.7,0.0,-1.0,-0.7,326.7,0.000000,0.000000,0.00,0.0,0.0,1.2,0.01,-0.01,1.00,-0.09,0.65,-0.56,55,67,247
82,63244038,-170.7,0.0,-0.9,-0.7,326.7,0.000000,0.000000,0.00,0.0,0.0,1.2,0.01,-0.01,1.00,-0.09,0.65,-0.49,55,67,247
83,63244136,-170.7,0.0,-0.8,-0.6,326.7,0.000000,0.000000,0.00,0.0,0.0,1.2,0.01,-0.01,1.00,-0.09,0.65,-0.42,55,67,247
84,63244233,-170.7,0.0,-0.8,-0.6,326.8,0.000000,0.000000,0.00,0.0,0.0,1.2,0.01,-0.01,1.00,-0.02,0.65,-0.42,55,67,247
85,63244330,-170.7,0.0,-0.8,-0.6,326.8,0.000000,0.000000,0.00,0.0,0.0,1.2,0.01,-0.02,1.00,-0.09,0.65,-0.42,55,67,247
86,63244428,-170.7,0.0,-0.8,-0.7,326.8,0.000000,0.000000,0.00,0.0,0.0,1.2,0.01,-0.01,1.00,-0.02,0.58,-0.42,55,67,247
87,63244525,-170.7,0.0,-0.9,-0.7,326.8,0.000000,0.000000,0.00,0.0,0.0,1.2,0.01,-0.02,1.00,-0.09,0.65,-0.42,55,67,247
88,63244623,-170.7,0.0,-0.9,-0.7,326.8,0.000000,0.000000,0.00,0.0,0.0,1.2,0.01,-0.02,1.00,-0.09,0.58,-0.49,55,67,247
89,63244720,-170.7,0.0,-0.9,-0.7,326.8,0.000000,0.000000,0.00,0.0,0.0,1.2,0.01,-0.02,1.00,-0.02,0.65,-0.42,55,67,247
90,63244817,-170.7,0.0,-0.9,-0.7,326.7,0.000000,0.000000,0.00,0.0,0.0,1.2,0.01,-0.02,1.00,-0.09,0.65,-0.42,55,67,247
91,63244915,-170.7,0.0,-0.9,-0.7,326.7,0.000000,0.000000,0.00,0.0,0.0,1.2,0.01,-0.02,1.00,-0.09,0.65,-0.56,55,67,247
92,63245012,-170.7,0.0,-0.9,-0.7,326.7,0.000000,0.000000,0.00,0.0,0.0,1.2,0.01,-0.02,1.00,-0.09,0.65,-0.42,55,67,247
93,63245109,-170.7,0.0,-0.9,-0.7,326.7,0.000000,0.000000,0.00,0.0,0.0,1.2,0.01,-0.01,1.00,-0.02,0.58,-0.56,55,67,247
94,63245207,-170.7,0.0,-0.9,-0.7,326.7,0.000000,0.000000,0.00,0.0,0.0,1.2,0.01,-0.02,1.00,-0.02,0.65,-0.42,55,67,247
95,63245304,-170.7,0.0,-0.9,-0.7,326.7,0.000000,0.000000,0.00,0.0,0.0,1.2,0.01,-0.02,1.00,-0.09,0.65,-0.49,55,67,247
96,63245401,-170.7,0.0,-0.9,-0.7,326.8,0.000000,0.000000,0.00,0.0,0.0,1.2,0.01,-0.01,1.00,-0.02,0.65,-0.49,55,67,247
97,63245499,-170.7,0.0,-0.8,-0.6,326.8,0.000000,0.000000,0.00,0.0,0.0,1.2,0.01,-0.02,1.00,-0.09,0.65,-0.49,55,67,247
98,63245596,-170.7,0.0,-0.8,-0.6,326.8,0.000000,0.000000,0.00,0.0,0.0,1.2,0.01,-0.02,1.00,-0.09,0.65,-0.42,55,67,247
99,63245694,-170.7,0.0,-0.8,-0.6,326.8,0.000000,0.000000,0.00,0.0,0.0,1.2,0.01,-0.02,1.00,0.05,0.65,-0.42,55,67,247
100,63245791,-170.7,0.0,-0.8,-0.6,326.9,0.000000,0.000000,0.00,0.0,0.0,1.2,0.01,-0.01,1.00,-0.02,0.72,-0.42,55,67,247
101,63245888,-170.7,0.0,-0.8,-0.6,326.9,0.000000,0.000000,0.00,0.0,0.0,1.2,0.01,-0.02,1.00,-0.02,0.65,-0.49,55,67,247
102,63245986,-170.7,0.0,-0.8,-0.6,326.9,0.000000,0.000000,0.00,0.0,0.0,1.2,0.01,-0.02,1.00,-0.02,0.65,-0.35,55,67,247
103,63246083,-170.7,0.0,-0.8,-0.6,327.0,0.000000,0.000000,0.00,0.0,0.0,1.2,0.01,-0.02,1.00,-0.02,0.51,-0.49,55,67,247
104,63246180,-170.7,0.0,-0.8,-0.6,327.0,0.000000,0.000000,0.00,0.0,0.0,1.2,0.01,-0.01,1.00,-0.02,0.72,-0.42,55,67,247
105,63246278,-170.7,0.0,-0.8,-0.6,327.0,0.000000,0.000000,0.00,0.0,0.0,1.2,0.01,-0.02,1.00,-0.02,0.58,-0.49,55,67,247
106,63246375,-170.7,0.0,-0.8,-0.6,327.1,0.000000,0.000000,0.00,0.0,0.0,1.2,0.01,-0.01,1.00,-0.02,0.58,-0.49,55,67,247
107,63246472,-170.7,0.0,-0.8,-0.6,327.1,0.000000,0.000000,0.00,0.0,0.0,1.2,0.01,-0.01,1.00,-0.09,0.65,-0.42,55,67,247
108,63246570,-170.7,0.0,-0.8,-0.6,327.2,0.000000,0.000000,0.00,0.0,0.0,1.2,0.01,-0.02,1.00,-0.02,0.58,-0.49,55,67,247
109,63246667,-170.7,0.0,-0.8,-0.6,327.2,0.000000,0.000000,0.00,0.0,0.0,1.2,0.01,-0.02,1.00,-0.09,0.65,-0.49,55,67,247
110,63246764,-170.7,0.0,-0.8,-0.6,327.2,0.000000,0.000000,0.00,0.0,0.0,1.2,0.01,-0.02,1.00,-0.16,0.72,-0.49,55,67,247
111,63246862,-170.7,0.0,-0.8,-0.6,327.3,0.000000,0.000000,0.00,0.0,0.0,1.2,0.01,-0.02,1.00,0.05,0.58,-0.49,55,67,247
112,63246959,-170.7,0.0,-0.8,-0.6,327.3,0.000000,0.000000,0.00,0.0,0.0,1.2,0.01,-0.01,1.00,-0.09,0.65,-0.42,55,67,247
113,63247057,-170.7,0.0,-0.9,-0.7,327.2,0.000000,0.000000,0.00,0.0,0.0,1.2,0.01,-0.02,1.00,-0.09,0.79,-0.49,55,67,247
114,63247154,-170.7,0.0,-0.9,-0.7,327.2,0.000000,0.000000,0.00,0.0,0.0,1.2,0.01,-0.02,1.00,-0.02,0.65,-0.49,55,67,247
115,63247251,-170.7,0.0,-0.9,-0.7,327.1,0.000000,0.000000,0.00,0.0,0.0,1.2,0.01,-0.01,1.00,-0.02,0.58,-0.49,55,67,247
116,63247349,-170.7,0.0,-0.9,-0.7,327.1,0.000000,0.000000,0.00,0.0,0.0,1.2,0.01,-0.02,1.00,-0.09,0.65,-0.42,55,67,247
117,63247446,-170.7,0.0,-0.9,-0.7,327.0,0.000000,0.000000,0.00,0.0,0.0,1.2,0.01,-0.01,1.00,-0.02,0.65,-0.49,55,67,247
118,63247543,-170.7,0.0,-1.0,-0.7,327.0,0.000000,0.000000,0.00,0.0,0.0,1.2,0.01,-0.02,1.00,-0.09,0.72,-0.49,55,67,247
119,63247641,-170.7,0.0,-1.0,-0.7,326.9,0.000000,0.000000,0.00,0.0,0.0,1.2,0.01,-0.01,1.00,-0.09,0.65,-0.42,55,67,247
120,63247738,-170.7,0.0,-1.0,-0.7,326.9,0.000000,0.000000,0.00,0.0,0.0,1.2,0.01,-0.02,1.00,-0.09,0.65,-0.42,55,67,247
121,63247835,-170.7,0.0,-1.0,-0.8,326.8,0.000000,0.000000,0.00,0.0,0.0,1.2,0.01,-0.02,1.00,-0.09,0.58,-0.42,55,67,247
122,63247933,-170.7,0.0,-1.0,-0.8,326.8,0.000000,0.000000,0.00,0.0,0.0,1.2,0.01,-0.02,1.00,-0.02,0.65,-0.42,55,67,247
123,63248030,-170.7,0.0,-0.9,-0.7,326.8,0.000000,0.000000,0.00,0.0,0.0,1.2,0.01,-0.02,1.00,-0.09,0.58,-0.42,55,67,247
124,63248127,-170.7,0.0,-0.9,-0.7,326.8,0.000000,0.000000,0.00,0.0,0.0,1.2,0.01,-0.02,1.00,-0.02,0.65,-0.49,55,67,247
125,63248225,-170.7,0.0,-0.9,-0.7,326.8,0.000000,0.000000,0.00,0.0,0.0,1.2,0.01,-0.02,1.00,-0.02,0.58,-0.42,55,67,247
126,63248322,-170.7,0.0,-0.8,-0.7,326.9,0.000000,0.000000,0.00,0.0,0.0,1.2,0.01,-0.01,1.00,-0.09,0.65,-0.49,55,67,247
127,63248420,-170.7,0.0,-0.8,-0.6,326.9,0.000000,0.000000,0.00,0.0,0.0,1.2,0.01,-0.02,1.00,-0.02,0.72,-0.42,55,67,247
128,63248517,-170.7,0.0,-0.9,-0.6,326.8,0.000000,0.000000,0.00,0.0,0.0,1.2,0.01,-0.02,1.00,-0.09,0.65,-0.42,55,67,247
129,63248614,-170.7,0.0,-0.9,-0.7,326.8,0.000000,0.000000,0.00,0.0,0.0,1.2,0.01,-0.02,1.00,-0.02,0.58,-0.49,55,67,247
130,63248712,-170.7,0.0,-0.9,-0.7,326.8,0.000000,0.000000,0.00,0.0,0.0,1.2,0.01,-0.02,1.00,-0.02,0.65,-0.49,55,67,247
131,63248809,-170.7,0.0,-0.9,-0.7,326.7,0.000000,0.000000,0.00,0.0,0.0,1.2,0.01,-0.02,1.00,-0.16,0.65,-0.49,55,67,247
132,63248906,-170.7,0.0,-0.9,-0.7,326.7,0.000000,0.000000,0.00,0.0,0.0,1.2,0.01,-0.02,1.00,-0.09,0.65,-0.42,55,67,247
133,63249004,-170.7,0.0,-0.9,-0.7,326.6,0.000000,0.000000,0.00,0.0,0.0,1.2,0.01,-0.01,1.00,-0.02,0.65,-0.49,55,67,247
134,63249101,-170.7,0.0,-1.0,-0.8,326.5,0.000000,0.000000,0.00,0.0,0.0,1.2,0.01,-0.02,1.00,-0.09,0.58,-0.49,55,67,247
135,63249198,-170.7,0.0,-1.0,-0.8,326.5,0.000000,0.000000,0.00,0.0,0.0,1.2,0.01,-0.01,1.00,-0.02,0.65,-0.49,55,67,247
136,63249296,-170.7,0.0,-1.0,-0.8,326.4,0.000000,0.000000,0.00,0.0,0.0,1.2,0.01,-0.02,1.00,-0.09,0.65,-0.42,55,67,247
137,63249393,-170.7,0.0,-1.0,-0.7,326.3,0.000000,0.000000,0.00,0.0,0.0,1.2,0.01,-0.02,1.00,-0.09,0.65,-0.49,55,67,247
138,63249490,-170.7,0.0,-0.9,-0.7,326.3,0.000000,0.000000,0.00,0.0,0.0,1.2,0.01,-0.02,1.00,-0.02,0.65,-0.49,55,67,247
139,63249588,-170.7,0.0,-0.9,-0.6,326.4,0.000000,0.000000,0.00,0.0,0.0,1.2,0.01,-0.02,1.00,-0.02,0.72,-0.56,55,67,247
140,63249685,-170.7,0.0,-0.8,-0.6,326.4,0.000000,0.000000,0.00,0.0,0.0,1.2,0.01,-0.02,1.00,-0.02,0.65,-0.42,55,67,247
141,63249783,-170.7,0.0,-0.8,-0.6,326.5,0.000000,0.000000,0.00,0.0,0.0,1.2,0.01,-0.02,1.00,-0.09,0.58,-0.49,55,67,247
142,63249880,-170.7,0.0,-0.8,-0.6,326.5,0.000000,0.000000,0.00,0.0,0.0,1.2,0.01,-0.02,1.00,-0.09,0.58,-0.49,55,67,247
143,63249977,-170.7,0.0,-0.8,-0.6,326.6,0.000000,0.000000,0.00,0.0,0.0,1.2,0.01,-0.02,1.00,-0.09,0.65,-0.56,55,67,247
144,63250075,-170.7,0.0,-0.8,-0.6,326.6,0.000000,0.000000,0.00,0.0,0.0,1.2,0.01,-0.02,1.00,-0.09,0.65,-0.42,55,67,247
145,63250172,-170.7,0.0,-0.8,-0.6,326.7,0.000000,0.000000,0.00,0.0,0.0,1.2,0.01,-0.02,1.00,-0.02,0.65,-0.42,55,67,247
146,63250269,-170.6,0.0,-0.8,-0.6,326.7,0.000000,0.000000,0.00,0.0,0.0,1.2,0.01,-0.02,1.00,-0.09,0.65,-0.42,55,67,247
147,63250367,-170.6,0.0,-0.8,-0.6,326.8,0.000000,0.000000,0.00,0.0,0.0,1.2,0.01,-0.01,1.00,-0.09,0.65,-0.49,55,67,247
148,63250464,-170.6,0.0,-0.8,-0.6,326.8,0.000000,0.000000,0.00,0.0,0.0,1.2,0.01,-0.02,1.00,-0.02,0.65,-0.42,55,67,247
149,63250561,-170.7,0.0,-0.8,-0.6,326.9,0.000000,0.000000,0.00,0.0,0.0,1.2,0.01,-0.01,1.00,-0.09,0.65,-0.49,55,67,247
150,63250659,-170.7,0.0,-0.8,-0.6,327.0,0.000000,0.000000,0.00,0.0,0.0,1.2,0.01,-0.02,1.00,-0.09,0.65,-0.49,55,67,247
151,63250756,-170.7,0.0,-0.8,-0.6,327.0,0.000000,0.000000,0.00,0.0,0.0,1.2,0.01,-0.01,1.00,-0.09,0.65,-0.42,55,67,247
152,63250854,-170.7,0.0,-0.8,-0.6,327.1,0.000000,0.000000,0.00,0.0,0.0,1.2,0.01,-0.02,1.00,-0.09,0.65,-0.49,55,67,247
153,63250951,-170.7,0.0,-0.8,-0.6,327.1,0.000000,0.000000,0.00,0.0,0.0,1.2,0.01,-0.01,1.00,-0.09,0.65,-0.49,55,67,247
154,63251048,-170.7,0.0,-0.7,-0.5,327.3,0.000000,0.000000,0.00,0.0,0.0,1.2,0.01,-0.01,1.00,-0.16,0.65,-0.49,55,67,247
155,63251146,-170.7,0.0,-0.6,-0.5,327.4,0.000000,0.000000,0.00,0.0,0.0,1.2,0.01,-0.01,1.00,-0.09,0.65,-0.42,55,67,247
156,63251243,-170.7,0.0,-0.7,-0.5,327.6,0.000000,0.000000,0.00,0.0,0.0,1.2,0.01,-0.02,1.00,-0.09,0.65,-0.49,55,67,247
157,63251340,-170.7,0.0,-0.7,-0.5,327.7,0.000000,0.000000,0.00,0.0,0.0,1.2,0.01,-0.01,1.00,-0.09,0.65,-0.42,55,67,247
158,63251438,-170.7,0.0,-0.7,-0.5,327.8,0.000000,0.000000,0.00,0.0,0.0,1.2,0.01,-0.01,1.00,-0.02,0.65,-0.42,55,67,247
159,63251535,-170.7,0.0,-0.8,-0.6,327.7,0.000000,0.000000,0.00,0.0,0.0,1.2,0.01,-0.01,1.00,-0.09,0.72,-0.42,55,67,247
160,63251632,-170.7,0.0,-0.8,-0.6,327.7,0.000000,0.000000,0.00,0.0,0.0,1.2,0.01,-0.02,1.00,-0.09,0.58,-0.49,55,67,247
161,63251730,-170.7,0.0,-0.9,-0.7,327.7,0.000000,0.000000,0.00,0.0,0.0,1.2,0.01,-0.02,1.00,-0.02,0.65,-0.49,55,67,247
162,63251827,-170.7,0.0,-0.9,-0.7,327.6,0.000000,0.000000,0.00,0.0,0.0,1.2,0.01,-0.02,1.00,-0.09,0.72,-0.42,55,67,247
163,63251924,-170.7,0.0,-0.9,-0.7,327.6,0.000000,0.000000,0.00,0.0,0.0,1.2,0.01,-0.02,1.00,-0.09,0.58,-0.42,55,67,247
164,63252022,-170.7,0.0,-0.9,-0.7,327.6,0.000000,0.000000,0.00,0.0,0.0,1.2,0.01,-0.02,1.00,-0.09,0.58,-0.42,55,67,247
165,63252119,-170.7,0.0,-0.9,-0.7,327.6,0.000000,0.000000,0.00,0.0,0.0,1.2,0.01,-0.02,1.00,-0.09,0.58,-0.49,55,67,247
166,63252217,-170.7,0.0,-0.9,-0.7,327.5,0.000000,0.000000,0.00,0.0,0.0,1.2,0.01,-0.01,1.00,-0.16,0.58,-0.42,55,67,247
167,63252314,-170.7,0.0,-0.9,-0.7,327.5,0.000000,0.000000,0.00,0.0,0.0,1.2,0.01,-0.02,1.00,-0.02,0.65,-0.56,55,67,247
168,63252411,-170.7,0.0,-0.9,-0.7,327.5,0.000000,0.000000,0.00,0.0,0.0,1.2,0.01,-0.01,1.00,-0.02,0.58,-0.49,55,67,247
169,63252509,-170.7,0.0,-0.9,-0.7,327.5,0.000000,0.000000,0.00,0.0,0.0,1.2,0.01,-0.02,1.00,-0.02,0.72,-0.49,55,67,247
170,63252606,-170.7,0.0,-0.8,-0.6,327.6,0.000000,0.000000,0.00,0.0,0.0,1.2,0.01,-0.02,1.00,-0.09,0.72,-0.49,55,67,247
171,63252703,-170.7,0.0,-0.8,-0.6,327.6,0.000000,0.000000,0.00,0.0,0.0,1.2,0.01,-0.02,1.00,-0.09,0.58,-0.42,55,67,247
172,63252801,-170.7,0.0,-0.8,-0.6,327.6,0.000000,0.000000,0.00,0.0,0.0,1.2,0.01,-0.02,1.00,-0.02,0.65,-0.49,55,67,247
173,63252898,-170.7,0.0,-0.8,-0.6,327.7,0.000000,0.000000,0.00,0.0,0.0,1.2,0.01,-0.01,1.00,-0.09,0.72,-0.49,55,67,247
174,63252995,-170.7,0.0,-0.8,-0.6,327.7,0.000000,0.000000,0.00,0.0,0.0,1.2,0.01,-0.02,1.00,-0.02,0.65,-0.42,55,67,247
175,63253093,-170.7,0.0,-0.8,-0.7,327.7,0.000000,0.000000,0.00,0.0,0.0,1.2,0.01,-0.02,1.00,-0.09,0.58,-0.42,55,67,247
176,63253190,-170.7,0.0,-0.9,-0.7,327.7,0.000000,0.000000,0.00,0.0,0.0,1.2,0.01,-0.02,1.00,-0.09,0.58,-0.42,55,67,247
177,63253287,-170.7,0.0,-0.8,-0.6,327.7,0.000000,0.000000,0.00,0.0,0.0,1.2,0.01,-0.01,1.00,-0.02,0.65,-0.49,55,67,247
178,63253385,-170.7,0.0,-0.9,-0.6,327.7,0.000000,0.000000,0.00,0.0,0.0,1.2,0.01,-0.02,1.00,-0.02,0.65,-0.42,55,67,247
179,63253482,-170.7,0.0,-0.8,-0.6,327.8,0.000000,0.000000,0.00,0.0,0.0,1.2,0.01,-0.02,1.00,-0.09,0.65,-0.42,55,67,247
180,63253580,-170.7,0.0,-0.8,-0.5,327.8,0.000000,0.000000,0.00,0.0,0.0,1.2,0.01,-0.02,1.00,-0.02,0.58,-0.49,55,67,247
181,63253677,-170.7,0.0,-0.7,-0.5,327.9,0.000000,0.000000,0.00,0.0,0.0,1.2,0.01,-0.01,1.00,-0.09,0.65,-0.49,55,67,247
182,63253774,-170.7,0.0,-0.8,-0.5,328.0,0.000000,0.000000,0.00,0.0,0.0,1.2,0.01,-0.02,1.00,-0.16,0.65,-0.49,55,67,247
183,63253872,-170.7,0.0,-0.8,-0.6,328.1,0.000000,0.000000,0.00,0.0,0.0,1.2,0.01,-0.02,1.00,-0.16,0.65,-0.49,55,67,247
184,63253969,-170.7,0.0,-0.7,-0.6,328.1,0.000000,0.000000,0.00,0.0,0.0,1.2,0.01,-0.01,1.00,-0.09,0.58,-0.49,55,67,247
185,63254066,-170.7,0.0,-0.7,-0.6,328.2,0.000000,0.000000,0.00,0.0,0.0,1.2,0.01,-0.02,1.00,-0.09,0.58,-0.49,55,67,247
186,63254164,-170.7,0.0,-0.7,-0.6,328.3,0.000000,0.000000,0.00,0.0,0.0,1.2,0.01,-0.01,1.00,-0.09,0.65,-0.49,55,67,247
187,63254261,-170.7,0.0,-0.7,-0.6,328.4,0.000000,0.000000,0.00,0.0,0.0,1.2,0.01,-0.02,1.00,-0.09,0.65,-0.49,55,67,247
188,63254358,-170.7,0.0,-0.7,-0.6,328.5,0.000000,0.000000,0.00,0.0,0.0,1.2,0.01,-0.01,1.00,-0.09,0.65,-0.49,55,67,247
189,63254456,-170.7,0.0,-0.8,-0.7,328.4,0.000000,0.000000,0.00,0.0,0.0,1.2,0.01,-0.02,1.00,-0.02,0.72,-0.49,55,67,247
190,63254553,-170.7,0.0,-1.0,-0.8,328.3,0.000000,0.000000,0.00,0.0,0.0,1.2,0.01,-0.02,1.00,-0.02,0.65,-0.42,55,67,247
191,63254650,-170.7,0.0,-1.0,-0.8,328.2,0.000000,0.000000,0.00,0.0,0.0,1.2,0.01,-0.02,1.00,-0.02,0.65,-0.49,55,67,247
192,63254748,-170.7,0.0,-1.1,-0.8,328.1,0.000000,0.000000,0.00,0.0,0.0,1.2,0.01,-0.02,1.00,-0.02,0.65,-0.49,55,67,247
193,63254845,-170.7,0.0,-1.1,-0.8,328.0,0.000000,0.000000,0.00,0.0,0.0,1.2,0.01,-0.02,1.00,-0.02,0.65,-0.49,55,67,247
194,63254943,-170.7,0.0,-1.1,-0.8,327.9,0.000000,0.000000,0.00,0.0,0.0,1.2,0.01,-0.02,1.00,-0.09,0.65,-0.49,55,67,247
195,63255040,-170.7,0.0,-1.0,-0.8,327.8,0.000000,0.000000,0.00,0.0,0.0,1.2,0.01,-0.01,1.00,-0.09,0.72,-0.49,55,67,247
196,63255137,-170.7,0.0,-1.1,-0.8,327.7,0.000000,0.000000,0.00,0.0,0.0,1.2,0.01,-0.02,1.00,-0.02,0.65,-0.42,55,67,247
197,63255235,-170.7,0.0,-1.0,-0.8,327.6,0.000000,0.000000,0.00,0.0,0.0,1.2,0.01,-0.01,1.00,-0.02,0.72,-0.49,55,67,247
198,63255332,-170.7,0.0,-1.0,-0.8,327.6,0.000000,0.000000,0.00,0.0,0.0,1.2,0.01,-0.02,1.00,-0.09,0.58,-0.42,55,67,247
199,63255429,-170.7,0.0,-1.0,-0.8,327.5,0.000000,0.000000,0.00,0.0,0.0,1.2,0.01,-0.02,1.00,-0.09,0.65,-0.42,55,67,247
200,63255527,-170.7,0.0,-0.9,-0.7,327.5,0.000000,0.000000,0.00,0.0,0.0,1.2,0.01,-0.02,1.00,-0.09,0.65,-0.42,55,67,247
201,63255624,-170.7,0.0,-0.9,-0.7,327.5,0.000000,0.000000,0.00,0.0,0.0,1.2,0.01,-0.01,1.00,-0.16,0.65,-0.49,55,67,247
202,63255721,-170.7,0.0,-0.9,-0.7,327.5,0.000000,0.000000,0.00,0.0,0.0,1.2,0.01,-0.02,1.00,-0.16,0.65,-0.42,55,67,247
203,63255819,-170.7,0.0,-0.9,-0.7,327.5,0.000000,0.000000,0.00,0.0,0.0,1.2,0.01,-0.01,1.00,-0.02,0.58,-0.49,55,67,247
204,63255916,-170.7,0.0,-0.9,-0.7,327.5,0.000000,0.000000,0.00,0.0,0.0,1.2,0.01,-0.02,1.00,-0.09,0.58,-0.49,55,67,247
205,63256014,-170.7,0.0,-0.9,-0.6,327.5,0.000000,0.000000,0.00,0.0,0.0,1.2,0.01,-0.02,1.00,-0.09,0.58,-0.42,55,67,247
206,63256111,-170.7,0.0,-0.9,-0.7,327.6,0.000000,0.000000,0.00,0.0,0.0,1.2,0.01,-0.02,1.00,-0.09,0.65,-0.49,55,67,247
207,63256208,-170.7,0.0,-0.8,-0.6,327.6,0.000000,0.000000,0.00,0.0,0.0,1.2,0.01,-0.02,1.00,-0.09,0.65,-0.49,55,67,247
208,63256306,-170.7,0.0,-0.8,-0.6,327.6,0.000000,0.000000,0.00,0.0,0.0,1.2,0.01,-0.02,1.00,-0.09,0.65,-0.49,55,67,247
209,63256403,-170.7,0.0,-0.8,-0.6,327.6,0.000000,0.000000,0.00,0.0,0.0,1.2,0.01,-0.02,1.00,-0.09,0.72,-0.49,55,67,247
210,63256500,-170.7,0.0,-0.9,-0.7,327.6,0.000000,0.000000,0.00,0.0,0.0,1.2,0.01,-0.01,1.00,-0.09,0.65,-0.42,55,67,247
211,63256598,-170.7,0.0,-0.9,-0.7,327.5,0.000000,0.000000,0.00,0.0,0.0,1.2,0.01,-0.02,1.00,-0.09,0.58,-0.49,55,67,247
212,63256695,-170.7,0.0,-0.9,-0.7,327.4,0.000000,0.000000,0.00,0.0,0.0,1.2,0.01,-0.01,1.00,-0.09,0.65,-0.42,55,67,247
213,63256792,-170.7,0.0,-0.9,-0.7,327.4,0.000000,0.000000,0.00,0.0,0.0,1.2,0.01,-0.02,1.00,-0.02,0.58,-0.42,55,67,247
214,63256890,-170.7,0.0,-0.9,-0.7,327.4,0.000000,0.000000,0.00,0.0,0.0,1.2,0.01,-0.02,1.00,-0.02,0.65,-0.42,55,67,247
215,63256987,-170.7,0.0,-1.0,-0.7,327.3,0.000000,0.000000,0.00,0.0,0.0,1.2,0.01,-0.02,1.00,-0.02,0.65,-0.49,55,67,247
216,63257084,-170.7,0.0,-1.0,-0.8,327.2,0.000000,0.000000,0.00,0.0,0.0,1.2,0.01,-0.02,1.00,-0.02,0.65,-0.42,55,67,247
217,63257182,-170.7,0.0,-1.0,-0.8,327.1,0.000000,0.000000,0.00,0.0,0.0,1.2,0.01,-0.01,1.00,-0.09,0.65,-0.49,55,67,247
218,63257279,-170.7,0.0,-1.0,-0.8,327.0,0.000000,0.000000,0.00,0.0,0.0,1.2,0.01,-0.02,1.00,-0.02,0.65,-0.49,55,67,247
219,63257377,-170.7,0.0,-1.0,-0.8,327.0,0.000000,0.000000,0.00,0.0,0.0,1.2,0.01,-0.02,1.00,-0.16,0.58,-0.49,55,67,247
220,63257474,-170.7,0.0,-0.8,-0.6,327.1,0.000000,0.000000,0.00,0.0,0.0,1.2,0.01,-0.01,1.00,-0.09,0.65,-0.49,55,67,247
221,63257571,-170.7,0.0,-0.8,-0.6,327.2,0.000000,0.000000,0.00,0.0,0.0,1.2,0.01,-0.01,1.00,-0.09,0.58,-0.42,55,67,247
222,63257669,-170.7,0.0,-0.7,-0.6,327.3,0.000000,0.000000,0.00,0.0,0.0,1.2,0.01,-0.01,1.00,-0.02,0.65,-0.42,55,67,247
223,63257766,-170.7,0.0,-0.7,-0.6,327.3,0.000000,0.000000,0.00,0.0,0.0,1.2,0.01,-0.02,1.00,-0.09,0.65,-0.49,55,67,247
224,63257863,-170.7,0.0,-0.8,-0.6,327.4,0.000000,0.000000,0.00,0.0,0.0,1.2,0.01,-0.02,1.00,-0.09,0.65,-0.49,55,67,247
225,63257961,-170.7,0.0,-0.8,-0.6,327.4,0.000000,0.000000,0.00,0.0,0.0,1.2,0.01,-0.02,1.00,-0.02,0.51,-0.56,55,67,247
226,63258058,-170.7,0.0,-0.8,-0.6,327.4,0.000000,0.000000,0.00,0.0,0.0,1.2,0.01,-0.01,1.00,-0.02,0.65,-0.49,55,67,247
227,63258155,-170.7,0.0,-0.8,-0.6,327.4,0.000000,0.000000,0.00,0.0,0.0,1.2,0.01,-0.02,1.00,-0.02,0.65,-0.49,55,67,247
228,63258253,-170.7,0.0,-0.8,-0.7,327.5,0.000000,0.000000,0.00,0.0,0.0,1.2,0.01,-0.01,1.00,-0.02,0.65,-0.42,55,67,247
229,63258350,-170.7,0.0,-0.8,-0.7,327.5,0.000000,0.000000,0.00,0.0,0.0,1.2,0.01,-0.01,1.00,-0.09,0.65,-0.49,55,67,247
230,63258447,-170.7,0.0,-0.9,-0.7,327.4,0.000000,0.000000,0.00,0.0,0.0,1.2,0.01,-0.01,1.00,-0.09,0.65,-0.49,55,67,247
231,63258545,-170.7,0.0,-0.9,-0.7,327.4,0.000000,0.000000,0.00,0.0,0.0,1.2,0.01,-0.02,1.00,-0.02,0.65,-0.49,55,67,247
232,63258642,-170.7,0.0,-1.0,-0.8,327.3,0.000000,0.000000,0.00,0.0,0.0,1.2,0.01,-0.01,1.00,-0.09,0.65,-0.35,55,67,247
233,63258740,-170.7,0.0,-1.0,-0.8,327.2,0.000000,0.000000,0.00,0.0,0.0,1.2,0.01,-0.02,1.00,-0.02,0.65,-0.42,55,67,247
234,63258837,-170.7,0.0,-1.0,-0.7,327.2,0.000000,0.000000,0.00,0.0,0.0,1.2,0.01,-0.02,1.00,-0.09,0.72,-0.42,55,67,247
235,63258934,-170.7,0.0,-0.9,-0.7,327.2,0.000000,0.000000,0.00,0.0,0.0,1.2,0.01,-0.01,1.00,-0.02,0.65,-0.49,55,67,247
236,63259032,-170.7,0.0,-0.9,-0.7,327.2,0.000000,0.000000,0.00,0.0,0.0,1.2,0.01,-0.02,1.00,-0.02,0.72,-0.49,55,67,247
237,63259129,-170.7,0.0,-0.9,-0.7,327.2,0.000000,0.000000,0.00,0.0,0.0,1.2,0.01,-0.01,1.00,-0.09,0.65,-0.42,55,67,247
238,63259226,-170.7,0.0,-0.9,-0.7,327.2,0.000000,0.000000,0.00,0.0,0.0,1.2,0.01,-0.01,1.00,-0.02,0.65,-0.42,55,67,247
239,63259324,-170.7,0.0,-0.9,-0.6,327.2,0.000000,0.000000,0.00,0.0,0.0,1.2,0.01,-0.02,1.00,-0.02,0.58,-0.49,55,67,247
240,63259421,-170.7,0.0,-0.9,-0.7,327.2,0.000000,0.000000,0.00,0.0,0.0,1.2,0.01,-0.01,1.00,-0.16,0.65,-0.49,55,67,247
241,63259518,-170.7,0.0,-0.9,-0.7,327.1,0.000000,0.000000,0.00,0.0,0.0,1.2,0.01,-0.02,1.00,-0.09,0.58,-0.42,55,67,247
242,63259616,-170.7,0.0,-0.9,-0.7,327.1,0.000000,0.000000,0.00,0.0,0.0,1.2,0.01,-0.02,1.00,-0.16,0.65,-0.42,55,67,247
243,63259713,-170.6,0.0,-0.9,-0.7,327.1,0.000000,0.000000,0.00,0.0,0.0,1.2,0.01,-0.02,1.00,-0.02,0.65,-0.42,55,67,247
244,63259811,-170.6,0.0,-0.9,-0.7,327.0,0.000000,0.000000,0.00,0.0,0.0,1.2,0.01,-0.01,1.00,-0.09,0.58,-0.49,55,67,247
245,63259908,-170.6,0.0,-0.9,-0.7,327.0,0.000000,0.000000,0.00,0.0,0.0,1.2,0.01,-0.02,1.00,-0.09,0.65,-0.49,55,67,247
246,63260005,-170.7,0.0,-0.9,-0.7,327.0,0.000000,0.000000,0.00,0.0,0.0,1.2,0.01,-0.01,1.00,-0.09,0.65,-0.42,55,67,247
247,63260103,-170.7,0.0,-0.9,-0.7,326.9,0.000000,0.000000,0.00,0.0,0.0,1.2,0.01,-0.02,1.00,-0.16,0.65,-0.49,55,67,247
248,63260200,-170.7,0.0,-0.9,-0.7,326.9,0.000000,0.000000,0.00,0.0,0.0,1.2,0.01,-0.02,1.00,-0.09,0.58,-0.42,55,67,247
249,63260297,-170.7,0.0,-0.9,-0.7,326.9,0.000000,0.000000,0.00,0.0,0.0,1.2,0.01,-0.01,1.00,-0.02,0.65,-0.49,55,67,247
250,63260395,-170.7,0.0,-0.9,-0.7,326.9,0.000000,0.000000,0.00,0.0,0.0,1.2,0.01,-0.02,1.00,-0.02,0.65,-0.42,55,67,247
251,63260492,-170.7,0.0,-1.0,-0.7,326.8,0.000000,0.000000,0.00,0.0,0.0,1.2,0.01,-0.02,1.00,-0.09,0.58,-0.49,55,67,247
252,63260589,-170.7,0.0,-1.0,-0.7,326.7,0.000000,0.000000,0.00,0.0,0.0,1.2,0.01,-0.01,1.00,-0.02,0.65,-0.49,55,67,247
253,63260687,-170.7,0.0,-1.0,-0.7,326.7,0.000000,0.000000,0.00,0.0,0.0,1.2,0.01,-0.02,1.00,-0.09,0.58,-0.49,55,67,247
254,63260784,-170.7,0.0,-1.0,-0.7,326.6,0.000000,0.000000,0.00,0.0,0.0,1.2,0.01,-0.02,1.00,-0.09,0.65,-0.49,55,67,247
255,63260881,-170.7,0.0,-1.0,-0.7,326.6,0.000000,0.000000,0.00,0.0,0.0,1.2,0.01,-0.01,1.00,-0.02,0.65,-0.42,55,67,247
256,63260979,-170.7,0.0,-0.8,-0.6,326.8,0.000000,0.000000,0.00,0.0,0.0,1.2,0.01,-0.01,1.00,-0.02,0.65,-0.42,55,67,247
257,63261076,-170.6,0.0,-0.7,-0.5,326.9,0.000000,0.000000,0.00,0.0,0.0,1.2,0.01,-0.01,1.00,-0.02,0.65,-0.49,55,67,247
258,63261174,-170.6,0.0,-0.7,-0.5,327.0,0.000000,0.000000,0.00,0.0,0.0,1.2,0.01,-0.02,1.00,-0.09,0.58,-0.49,55,67,247
259,63261271,-170.6,0.0,-0.7,-0.5,327.1,0.000000,0.000000,0.00,0.0,0.0,1.2,0.01,-0.02,0.99,-0.09,0.51,-0.49,55,67,247
260,63261368,-170.7,0.0,-0.7,-0.6,327.2,0.000000,0.000000,0.00,0.0,0.0,1.2,0.01,-0.02,1.00,-0.02,0.65,-0.56,55,67,247
261,63261466,-170.7,0.0,-0.8,-0.6,327.2,0.000000,0.000000,0.00,0.0,0.0,1.2,0.01,-0.02,1.00,-0.09,0.58,-0.42,55,67,247
262,63261563,-170.7,0.0,-0.8,-0.6,327.1,0.000000,0.000000,0.00,0.0,0.0,1.2,0.01,-0.02,1.00,-0.16,0.51,-0.49,55,67,247
263,63261660,-170.7,0.0,-0.9,-0.6,327.1,0.000000,0.000000,0.00,0.0,0.0,1.2,0.01,-0.02,1.00,-0.09,0.51,-0.49,55,67,247
264,63261758,-170.7,0.0,-0.9,-0.6,327.1,0.000000,0.000000,0.00,0.0,0.0,1.2,0.01,-0.01,1.00,-0.02,0.58,-0.49,55,67,247
265,63261855,-170.7,0.0,-0.8,-0.7,327.1,0.000000,0.000000,0.00,0.0,0.0,1.2,0.01,-0.02,1.00,-0.09,0.58,-0.49,55,67,247
266,63261952,-170.7,0.0,-1.0,-0.8,327.0,0.000000,0.000000,0.00,0.0,0.0,1.2,0.01,-0.01,1.00,-0.09,0.51,-0.42,55,67,247
267,63262050,-170.7,0.0,-1.0,-0.8,326.9,0.000000,0.000000,0.00,0.0,0.0,1.2,0.01,-0.02,1.00,-0.09,0.58,-0.49,55,67,247
268,63262147,-170.7,0.0,-1.0,-0.8,326.8,0.000000,0.000000,0.00,0.0,0.0,1.2,0.01,-0.01,1.00,-0.02,0.58,-0.49,55,67,247
269,63262244,-170.7,0.0,-1.1,-0.8,326.7,0.000000,0.000000,0.00,0.0,0.0,1.2,0.01,-0.02,1.00,-0.09,0.58,-0.49,55,67,247
270,63262342,-170.7,0.0,-1.0,-0.9,326.6,0.000000,0.000000,0.00,0.0,0.0,1.2,0.01,-0.01,0.99,-0.09,0.58,-0.49,55,67,247
271,63262439,-170.7,0.0,-0.9,-0.8,326.6,0.000000,0.000000,0.00,0.0,0.0,1.2,0.01,-0.01,1.00,-0.09,0.65,-0.49,55,67,247
272,63262537,-170.7,0.0,-0.8,-0.7,326.7,0.000000,0.000000,0.00,0.0,0.0,1.2,0.01,-0.01,1.00,-0.02,0.58,-0.35,55,67,247
273,63262634,-170.7,0.0,-0.8,-0.7,326.8,0.000000,0.000000,0.00,0.0,0.0,1.2,0.01,-0.02,1.00,-0.02,0.58,-0.56,55,67,247
274,63262731,-170.7,0.0,-0.8,-0.7,326.8,0.000000,0.000000,0.00,0.0,0.0,1.2,0.01,-0.01,1.00,-0.02,0.65,-0.35,55,67,247
275,63262829,-170.7,0.0,-0.8,-0.7,326.8,0.000000,0.000000,0.00,0.0,0.0,1.2,0.01,-0.01,1.00,-0.16,0.65,-0.49,55,67,247
276,63262926,-170.7,0.0,-0.8,-0.6,326.9,0.000000,0.000000,0.00,0.0,0.0,1.2,0.01,-0.01,1.00,-0.09,0.58,-0.42,55,67,247
277,63263023,-170.7,0.0,-0.8,-0.6,326.9,0.000000,0.000000,0.00,0.0,0.0,1.2,0.01,-0.02,1.00,-0.09,0.65,-0.49,55,67,247
278,63263121,-170.7,0.0,-0.8,-0.7,326.9,0.000000,0.000000,0.00,0.0,0.0,1.2,0.01,-0.02,0.99,-0.09,0.65,-0.42,55,67,247
279,63263218,-170.7,0.0,-0.8,-0.6,326.9,0.000000,0.000000,0.00,0.0,0.0,1.2,0.01,-0.02,1.00,-0.09,0.65,-0.49,55,67,247
280,63263315,-170.7,0.0,-0.9,-0.6,327.0,0.000000,0.000000,0.00,0.0,0.0,1.2,0.01,-0.02,1.00,-0.09,0.65,-0.49,55,67,247
281,63263413,-170.7,0.0,-0.9,-0.6,327.0,0.000000,0.000000,0.00,0.0,0.0,1.2,0.01,-0.02,1.00,-0.16,0.58,-0.42,55,67,247
282,63263510,-170.7,0.0,-0.9,-0.6,327.0,0.000000,0.000000,0.00,0.0,0.0,1.2,0.01,-0.02,1.00,-0.09,0.65,-0.42,55,67,247
283,63263607,-170.7,0.0,-0.9,-0.6,327.0,0.000000,0.000000,0.00,0.0,0.0,1.2,0.01,-0.02,1.00,-0.09,0.65,-0.42,55,67,247
284,63263705,-170.7,0.0,-0.9,-0.6,327.0,0.000000,0.000000,0.00,0.0,0.0,1.2,0.01,-0.02,1.00,-0.02,0.65,-0.49,55,67,247
285,63263802,-170.7,0.0,-0.9,-0.6,327.0,0.000000,0.000000,0.00,0.0,0.0,1.2,0.01,-0.02,1.00,-0.16,0.65,-0.49,55,67,247
286,63263900,-170.7,0.0,-0.9,-0.6,327.0,0.000000,0.000000,0.00,0.0,0.0,1.2,0.01,-0.02,1.00,-0.02,0.65,-0.42,55,67,247
287,63263997,-170.7,0.0,-0.8,-0.6,327.1,0.000000,0.000000,0.00,0.0,0.0,1.2,0.01,-0.02,1.00,-0.09,0.72,-0.49,55,67,247
288,63264094,-170.7,0.0,-0.8,-0.5,327.2,0.000000,0.000000,0.00,0.0,0.0,1.2,0.01,-0.01,1.00,-0.02,0.65,-0.56,55,67,247
289,63264192,-170.7,0.0,-0.8,-0.6,327.2,0.000000,0.000000,0.00,0.0,0.0,1.2,0.01,-0.01,1.00,-0.16,0.58,-0.42,55,67,247
290,63264289,-170.7,0.0,-0.8,-0.6,327.2,0.000000,0.000000,0.00,0.0,0.0,1.2,0.01,-0.02,1.00,-0.09,0.58,-0.42,55,67,247
291,63264386,-170.7,0.0,-0.8,-0.6,327.3,0.000000,0.000000,0.00,0.0,0.0,1.2,0.01,-0.02,1.00,-0.09,0.65,-0.49,55,67,247
292,63264484,-170.7,0.0,-0.8,-0.6,327.3,0.000000,0.000000,0.00,0.0,0.0,1.2,0.01,-0.02,1.00,-0.09,0.65,-0.49,55,67,247
293,63264581,-170.7,0.0,-0.8,-0.6,327.4,0.000000,0.000000,0.00,0.0,0.0,1.2,0.01,-0.02,1.00,-0.09,0.65,-0.49,55,67,247
294,63264678,-170.7,0.0,-0.8,-0.6,327.4,0.000000,0.000000,0.00,0.0,0.0,1.2,0.01,-0.02,1.00,-0.02,0.65,-0.49,55,67,247
295,63264776,-170.7,0.0,-0.8,-0.7,327.4,0.000000,0.000000,0.00,0.0,0.0,1.2,0.01,-0.01,1.00,-0.02,0.58,-0.49,55,67,247
296,63264873,-170.7,0.0,-0.8,-0.7,327.5,0.000000,0.000000,0.00,0.0,0.0,1.2,0.01,-0.02,1.00,-0.02,0.65,-0.42,55,67,247
297,63264971,-170.7,0.0,-0.9,-0.8,327.4,0.000000,0.000000,0.00,0.0,0.0,1.2,0.01,-0.02,1.00,-0.09,0.65,-0.42,55,67,247
298,63265068,-170.7,0.0,-1.0,-0.8,327.3,0.000000,0.000000,0.00,0.0,0.0,1.2,0.01,-0.01,1.00,-0.09,0.58,-0.49,55,67,247
299,63265165,-170.7,0.0,-1.0,-0.9,327.2,0.000000,0.000000,0.00,0.0,0.0,1.2,0.01,-0.01,1.00,-0.09,0.65,-0.42,55,67,247
300,63265263,-170.7,0.0,-1.0,-0.8,327.1,0.000000,0.000000,0.00,0.0,0.0,1.2,0.01,-0.02,1.00,-0.09,0.65,-0.42,55,67,247
301,63265360,-170.7,0.0,-1.0,-0.8,327.1,0.000000,0.000000,0.00,0.0,0.0,1.2,0.01,-0.02,1.00,-0.09,0.65,-0.42,55,67,247
302,63265457,-170.7,0.0,-0.9,-0.8,327.1,0.000000,0.000000,0.00,0.0,0.0,1.2,0.01,-0.02,1.00,-0.09,0.58,-0.49,55,67,247
303,63265555,-170.7,0.0,-0.9,-0.7,327.1,0.000000,0.000000,0.00,0.0,0.0,1.2,0.01,-0.01,1.00,-0.09,0.65,-0.42,55,67,247
304,63265652,-170.7,0.0,-0.9,-0.7,327.1,0.000000,0.000000,0.00,0.0,0.0,1.2,0.01,-0.02,1.00,-0.09,0.65,-0.49,55,67,247
305,63265749,-170.7,0.0,-0.9,-0.7,327.1,0.000000,0.000000,0.00,0.0,0.0,1.2,0.01,-0.01,1.00,-0.02,0.65,-0.56,55,67,247
306,63265847,-170.7,0.0,-0.9,-0.7,327.0,0.000000,0.000000,0.00,0.0,0.0,1.2,0.01,-0.02,1.00,-0.09,0.65,-0.42,55,67,247
307,63265944,-170.7,0.0,-0.8,-0.6,327.2,0.000000,0.000000,0.00,0.0,0.0,1.2,0.01,-0.02,1.00,-0.02,0.65,-0.49,55,67,247
308,63266041,-170.7,0.0,-0.8,-0.6,327.2,0.000000,0.000000,0.00,0.0,0.0,1.2,0.01,-0.01,0.99,-0.16,0.72,-0.49,55,67,247
309,63266139,-170.7,0.0,-0.8,-0.5,327.3,0.000000,0.000000,0.00,0.0,0.0,1.2,0.01,-0.02,1.00,-0.09,0.65,-0.49,55,67,247
310,63266236,-170.7,0.0,-0.8,-0.5,327.4,0.000000,0.000000,0.00,0.0,0.0,1.2,0.01,-0.02,1.00,-0.16,0.58,-0.49,55,67,247
311,63266334,-170.7,0.0,-0.8,-0.6,327.4,0.000000,0.000000,0.00,0.0,0.0,1.2,0.01,-0.02,1.00,-0.02,0.58,-0.49,55,67,247
312,63266431,-170.7,0.0,-0.8,-0.6,327.4,0.000000,0.000000,0.00,0.0,0.0,1.2,0.01,-0.01,1.00,-0.09,0.65,-0.49,55,67,247
313,63266528,-170.7,0.0,-0.9,-0.6,327.4,0.000000,0.000000,0.00,0.0,0.0,1.2,0.01,-0.02,1.00,-0.02,0.65,-0.49,55,67,247
314,63266626,-170.7,0.0,-0.8,-0.6,327.4,0.000000,0.000000,0.00,0.0,0.0,1.2,0.01,-0.01,0.99,-0.09,0.65,-0.49,55,67,247
315,63266723,-170.7,0.0,-0.9,-0.7,327.4,0.000000,0.000000,0.00,0.0,0.0,1.2,0.01,-0.02,1.00,-0.02,0.58,-0.49,55,67,247
316,63266820,-170.7,0.0,-0.9,-0.7,327.4,0.000000,0.000000,0.00,0.0,0.0,1.2,0.01,-0.01,1.00,-0.02,0.72,-0.49,55,67,247
317,63266918,-170.7,0.0,-0.7,-0.6,327.5,0.000000,0.000000,0.00,0.0,0.0,1.2,0.01,-0.01,1.00,-0.09,0.72,-0.42,55,67,247
318,63267015,-170.7,0.0,-0.7,-0.5,327.7,0.000000,0.000000,0.00,0.0,0.0,1.2,0.01,-0.02,1.00,-0.09,0.65,-0.42,55,67,247
319,63267112,-170.7,0.0,-0.7,-0.6,327.8,0.000000,0.000000,0.00,0.0,0.0,1.2,0.01,-0.02,1.00,-0.02,0.51,-0.56,55,67,247
320,63267210,-170.7,0.0,-0.7,-0.6,327.9,0.000000,0.000000,0.00,0.0,0.0,1.2,0.01,-0.02,1.00,-0.02,0.58,-0.49,55,67,247
321,63267307,-170.7,0.0,-0.7,-0.6,328.0,0.000000,0.000000,0.00,0.0,0.0,1.2,0.01,-0.01,0.99,-0.02,0.65,-0.49,55,67,247
322,63267404,-170.7,0.0,-0.8,-0.7,328.0,0.000000,0.000000,0.00,0.0,0.0,1.2,0.01,-0.01,1.00,-0.02,0.65,-0.49,55,67,247
323,63267502,-170.7,0.0,-0.9,-0.7,327.9,0.000000,0.000000,0.00,0.0,0.0,1.2,0.01,-0.02,1.00,-0.02,0.65,-0.49,55,67,247
324,63267599,-170.7,0.0,-0.9,-0.8,327.8,0.000000,0.000000,0.00,0.0,0.0,1.2,0.01,-0.02,1.00,-0.09,0.65,-0.42,55,67,247
325,63267697,-170.7,0.0,-0.9,-0.8,327.8,0.000000,0.000000,0.00,0.0,0.0,1.2,0.01,-0.02,1.00,-0.09,0.58,-0.49,55,67,247
326,63267794,-170.7,0.0,-1.0,-0.7,327.7,0.000000,0.000000,0.00,0.0,0.0,1.2,0.01,-0.02,1.00,-0.09,0.58,-0.42,55,67,247
327,63267891,-170.7,0.0,-0.9,-0.7,327.8,0.000000,0.000000,0.00,0.0,0.0,1.2,0.01,-0.02,1.00,-0.02,0.65,-0.49,55,67,247
328,63267989,-170.7,0.0,-0.8,-0.6,327.8,0.000000,0.000000,0.00,0.0,0.0,1.2,0.01,-0.02,1.00,-0.09,0.65,-0.42,55,67,247
329,63268086,-170.7,0.0,-0.8,-0.6,327.9,0.000000,0.000000,0.00,0.0,0.0,1.2,0.01,-0.02,1.00,-0.09,0.58,-0.49,55,67,247
330,63268183,-170.7,0.0,-0.8,-0.6,327.9,0.000000,0.000000,0.00,0.0,0.0,1.2,0.01,-0.02,1.00,-0.51,0.16,-0.49,55,67,247
331,63268281,-170.7,0.0,-0.8,-0.7,328.0,0.000000,0.000000,0.00,0.0,0.0,1.2,0.02,-0.02,0.99,-0.23,0.44,-0.42,55,67,247
332,63268378,-170.7,0.0,-0.8,-0.7,328.0,0.000000,0.000000,0.00,0.0,0.0,1.2,0.01,-0.02,1.00,0.05,0.86,-0.42,55,67,247
333,63268475,-170.7,0.0,-0.8,-0.6,328.1,0.000000,0.000000,0.00,0.0,0.0,1.2,0.01,-0.01,1.00,-0.02,0.65,-0.49,55,67,247
334,63268573,-170.7,0.0,-0.8,-0.6,328.1,0.000000,0.000000,0.00,0.0,0.0,1.2,0.01,-0.01,1.00,-0.30,0.23,-0.49,55,67,247
335,63268670,-170.7,0.0,-0.8,-0.5,328.1,0.000000,0.000000,0.00,0.0,0.0,1.2,0.01,-0.01,1.00,-0.65,-0.19,-0.49,55,67,247
336,63268767,-170.7,0.0,-0.8,-0.6,328.1,0.000000,0.000000,0.00,0.0,0.0,1.2,0.01,-0.02,1.00,-1.07,-0.68,-0.63,55,67,247
337,63268865,-170.7,0.0,-1.0,-0.8,328.0,0.000000,0.000000,0.00,0.0,0.0,1.2,0.02,-0.02,0.99,-0.58,0.02,-0.49,55,67,247
338,63268962,-170.7,0.0,-1.0,-0.7,328.0,0.000000,0.000000,0.00,0.0,0.0,1.2,0.01,-0.01,1.00,-0.23,0.30,-0.56,55,67,247
339,63269060,-170.7,0.0,-1.0,-0.8,327.9,0.000000,0.000000,0.00,0.0,0.0,1.2,0.02,-0.02,0.99,-0.65,0.02,-0.49,55,67,247
340,63269157,-170.7,0.0,-1.1,-1.0,327.8,0.000000,0.000000,0.00,0.0,0.0,1.2,0.02,-0.02,0.99,0.19,1.07,-0.35,55,67,247
341,63269254,-170.7,0.0,-1.0,-0.8,327.8,0.000000,0.000000,0.00,0.0,0.0,1.2,0.01,-0.01,1.00,0.54,1.42,-0.42,55,67,247
342,63269352,-170.7,0.0,-0.9,-0.8,327.8,0.000000,0.000000,0.00,0.0,0.0,1.2,0.02,-0.02,0.99,0.19,1.07,-0.35,55,67,247
343,63269449,-170.7,0.0,-0.8,-0.6,327.9,0.000000,0.000000,0.00,0.0,0.0,1.2,0.01,-0.01,0.99,0.61,1.49,-0.42,55,67,247
344,63269546,-170.7,0.0,-0.7,-0.5,328.0,0.000000,0.000000,0.00,0.0,0.0,1.2,0.00,-0.01,1.00,0.47,1.21,-0.49,55,67,247
345,63269644,-170.7,0.0,-0.6,-0.2,328.0,0.000000,0.000000,0.00,0.0,0.0,1.2,0.00,-0.01,1.00,-0.44,-0.12,-0.42,55,67,247
346,63269741,-170.7,0.0,-0.5,-0.3,328.0,0.000000,0.000000,0.00,0.0,0.0,1.2,0.01,-0.01,0.99,-1.00,-0.82,-0.28,55,67,247
347,63269838,-170.7,0.0,-0.9,-0.6,328.1,0.000000,0.000000,0.00,0.0,0.0,1.2,0.03,-0.04,1.00,-0.23,0.02,-0.49,55,67,247
348,63269936,-170.7,0.0,-0.8,-0.7,328.0,0.000000,0.000000,0.00,0.0,0.0,1.2,0.02,-0.01,1.00,-0.16,0.09,-0.42,55,67,247
349,63270033,-170.7,0.0,-1.0,-0.7,328.0,0.000000,0.000000,0.00,0.0,0.0,1.2,0.01,-0.02,1.00,-0.23,0.02,-0.56,55,67,247
350,63270131,-170.7,0.0,-1.0,-0.9,328.0,0.000000,0.000000,0.00,0.0,0.0,1.2,0.02,-0.02,1.00,-0.44,-0.05,-0.28,55,67,247
351,63270228,-170.7,0.0,-1.0,-1.0,328.0,0.000000,0.000000,0.00,0.0,0.0,1.2,0.02,-0.02,0.99,-0.37,0.30,-0.42,55,67,247
352,63270325,-170.7,0.0,-1.0,-1.1,328.0,0.000000,0.000000,0.00,0.0,0.0,1.2,0.02,-0.02,0.99,0.19,1.35,-0.42,55,67,247
353,63270423,-170.7,0.0,-0.9,-1.0,328.0,0.000000,0.000000,0.00,0.0,0.0,1.2,0.01,-0.02,1.00,0.47,1.70,-0.28,55,67,247
354,63270520,-170.7,0.0,-0.8,-0.8,328.0,0.000000,0.000000,0.00,0.0,0.0,1.2,0.01,-0.01,1.00,0.26,1.49,-0.28,55,67,247
355,63270617,-170.7,0.0,-0.9,-0.6,328.0,0.000000,0.000000,0.00,0.0,0.0,1.2,-0.00,-0.02,1.00,-0.37,0.86,-0.21,55,67,247
356,63270715,-170.7,0.0,-0.8,-0.5,328.0,0.000000,0.000000,0.00,0.0,0.0,1.2,0.01,-0.01,1.00,-0.44,0.30,-0.35,55,67,247
357,63270812,-170.7,0.0,-0.8,-0.4,328.0,0.000000,0.000000,0.00,0.0,0.0,1.2,-0.00,-0.02,1.00,-1.21,-0.68,-0.70,55,67,247
358,63270909,-170.7,0.0,-1.0,-0.5,328.0,0.000000,0.000000,0.00,0.0,0.0,1.2,0.01,-0.02,1.00,-1.49,-1.59,-0.84,55,67,247
359,63271007,-170.7,0.0,-1.0,-0.6,327.9,0.000000,0.000000,0.00,0.0,0.0,1.2,0.01,-0.00,0.98,-1.70,-1.73,-1.05,55,67,247
360,63271104,-170.7,0.0,-1.3,-1.0,327.9,0.000000,0.000000,0.00,0.0,0.0,1.2,0.05,-0.04,0.98,-0.02,1.70,0.14,55,67,247
361,63271201,-170.7,0.0,-0.8,-1.3,328.0,0.000000,0.000000,0.00,0.0,0.0,1.2,0.03,0.01,0.98,1.73,5.06,2.10,55,67,247
362,63271299,-170.7,0.0,-0.5,-1.5,328.0,0.000000,0.000000,0.00,0.0,0.0,1.2,0.04,0.01,1.03,1.73,7.02,4.48,55,67,247
363,63271396,-170.6,0.0,-0.2,-2.0,328.1,0.000000,0.000000,0.00,0.0,0.0,1.2,0.10,0.01,0.98,0.47,9.05,12.25,55,67,247
364,63271494,-170.6,0.0,-0.7,-2.2,328.4,0.000000,0.000000,0.00,0.0,0.0,1.2,0.06,-0.06,1.02,2.22,17.03,19.53,55,67,247
365,63271591,-170.7,0.0,-0.6,-1.6,328.6,0.000000,0.000000,0.00,0.0,0.0,1.2,0.01,0.00,1.09,-1.49,33.55,14.91,55,67,247
366,63271688,-170.7,0.0,-0.4,-1.3,328.6,0.000000,0.000000,0.00,0.0,0.0,1.2,0.07,0.02,1.05,-14.16,51.96,6.58,55,67,247
367,63271786,-170.7,0.0,-0.7,-0.9,328.6,0.000000,0.000000,0.00,0.0,0.0,1.2,0.02,-0.02,1.06,-21.72,76.25,-3.85,55,67,247
368,63271883,-170.7,0.0,-1.4,0.4,328.5,0.000000,0.000000,0.00,0.0,0.0,1.2,-0.02,-0.07,1.06,-24.80,105.09,-4.83,55,67,247
369,63271980,-170.7,0.0,-2.2,1.9,328.4,0.000000,0.000000,0.00,0.0,0.0,1.2,-0.08,-0.11,1.09,-25.64,135.54,0.21,55,67,247
370,63272078,-170.7,0.0,-2.7,4.0,328.4,0.000000,0.000000,0.00,0.0,0.0,1.2,-0.16,-0.06,0.89,-23.54,155.00,11.06,55,67,247
371,63272175,-170.7,0.0,-3.2,6.1,328.4,0.000000,0.000000,0.00,0.0,0.0,1.2,-0.15,-0.09,1.12,-22.56,174.53,22.54,55,67,247
372,63272272,-170.7,0.0,-4.0,7.9,328.3,0.000000,0.000000,0.00,0.0,0.0,1.2,-0.14,-0.10,1.14,-25.50,184.82,27.44,55,67,247
373,63272370,-170.6,0.0,-4.6,9.5,328.3,0.000000,0.000000,0.00,0.0,0.0,1.2,-0.14,-0.09,1.15,-31.80,190.28,26.60,55,67,247
374,63272467,-170.6,0.0,-5.2,10.9,328.2,0.000000,0.000000,0.00,0.0,0.0,1.2,-0.16,-0.09,0.99,-40.13,189.16,22.05,55,67,247
375,63272564,-170.6,0.0,-5.5,12.3,328.1,0.000000,0.000000,0.00,0.0,0.0,1.2,-0.20,-0.07,1.12,-49.79,185.66,15.75,55,67,247
376,63272662,-170.7,0.0,-5.7,14.3,327.9,0.000000,0.000000,0.00,0.0,0.0,1.2,-0.27,-0.06,1.11,-57.91,182.37,9.73,55,67,247
377,63272759,-170.7,0.0,-6.2,16.4,327.6,0.000000,0.000000,0.00,0.0,0.0,1.2,-0.30,-0.08,0.86,-60.50,175.51,4.69,55,67,247
378,63272857,-170.7,0.0,-6.5,18.2,327.5,0.000000,0.000000,0.00,0.0,0.0,1.2,-0.33,-0.06,1.16,-55.46,175.79,1.12,55,67,247
379,63272954,-170.7,0.0,-6.9,20.5,327.4,0.000000,0.000000,0.00,0.0,0.0,1.2,-0.35,-0.10,0.73,-46.15,179.22,0.56,55,67,247
380,63273051,-170.7,0.0,-7.1,22.0,327.3,0.000000,0.000000,0.00,0.0,0.0,1.2,-0.36,-0.10,0.92,-28.93,180.27,1.33,55,67,247
381,63273149,-170.7,0.0,-6.8,23.4,327.3,0.000000,0.000000,0.00,0.0,0.0,1.2,-0.37,-0.08,0.96,-15.42,179.43,2.59,55,67,247
382,63273246,-170.7,0.0,-6.5,24.6,327.3,0.000000,0.000000,0.00,0.0,0.0,1.2,-0.37,-0.04,1.06,-0.51,165.08,3.85,55,67,247
383,63273343,-170.7,0.0,-6.0,25.5,327.4,0.000000,0.000000,0.00,0.0,0.0,1.2,-0.34,-0.04,1.08,12.93,140.65,4.27,55,67,247
384,63273441,-170.7,0.0,-5.5,26.0,327.5,0.000000,0.000000,0.00,0.0,0.0,1.2,-0.33,-0.06,1.07,24.90,110.62,3.01,55,67,247
385,63273538,-170.7,0.0,-5.0,26.3,327.7,0.000000,0.000000,0.00,0.0,0.0,1.2,-0.37,-0.07,1.03,34.49,81.29,0.98,55,67,247
386,63273635,-170.7,0.0,-4.2,26.5,328.0,0.000000,0.000000,0.00,0.0,0.0,1.2,-0.42,-0.06,0.91,40.23,59.94,-0.70,55,67,247
387,63273733,-170.7,0.0,-3.7,27.3,328.2,0.000000,0.000000,0.00,0.0,0.0,1.2,-0.48,-0.07,0.85,44.36,46.64,-2.31,55,67,247
388,63273830,-170.7,0.0,-3.4,28.3,328.2,0.000000,0.000000,0.00,0.0,0.0,1.2,-0.52,-0.08,0.76,47.86,39.78,-3.29,55,67,247
389,63273927,-170.7,0.0,-3.1,29.2,328.1,0.000000,0.000000,0.00,0.0,0.0,1.2,-0.55,-0.10,0.71,45.69,39.78,-3.43,55,67,247
390,63274025,-170.7,0.0,-2.9,30.1,328.0,0.000000,0.000000,0.00,0.0,0.0,1.2,-0.59,-0.12,0.67,39.60,45.66,-2.80,55,67,247
391,63274122,-170.7,0.0,-2.8,31.2,327.9,0.000000,0.000000,0.00,0.0,0.0,1.2,-0.60,-0.10,0.64,33.02,53.78,-1.89,55,67,247
392,63274220,-170.7,0.0,-2.7,32.3,327.8,0.000000,0.000000,0.00,0.0,0.0,1.2,-0.60,-0.11,0.64,26.79,59.94,0.28,55,67,247
393,63274317,-170.7,0.0,-2.8,33.4,327.7,0.000000,0.000000,0.00,0.0,0.0,1.2,-0.61,-0.11,0.65,19.79,62.11,1.40,55,67,247
394,63274414,-170.7,0.0,-2.8,34.5,327.6,0.000000,0.000000,0.00,0.0,0.0,1.2,-0.60,-0.08,0.68,12.51,58.89,2.03,55,67,247
395,63274512,-170.7,0.0,-2.9,35.4,327.6,0.000000,0.000000,0.00,0.0,0.0,1.2,-0.59,-0.07,0.73,5.79,48.88,2.59,55,67,247
396,63274609,-170.7,0.0,-3.0,36.1,327.7,0.000000,0.000000,0.00,0.0,0.0,1.2,-0.59,-0.06,0.76,-0.09,33.48,3.29,55,67,247
397,63274706,-170.7,0.0,-3.1,36.6,327.8,0.000000,0.000000,0.00,0.0,0.0,1.2,-0.59,-0.05,0.75,-5.34,18.22,4.27,55,67,247
398,63274804,-170.7,0.0,-3.1,37.0,327.9,0.000000,0.000000,0.00,0.0,0.0,1.2,-0.58,-0.04,0.73,-9.82,5.69,4.27,55,67,247
399,63274901,-170.7,0.0,-3.1,37.3,328.2,0.000000,0.000000,0.00,0.0,0.0,1.2,-0.58,-0.03,0.71,-14.09,-1.73,1.96,55,67,247
400,63274998,-170.7,0.0,-3.1,37.6,328.4,0.000000,0.000000,0.00,0.0,0.0,1.2,-0.59,-0.02,0.70,-17.80,-5.02,0.56,55,67,247
401,63275096,-170.7,0.0,-3.1,37.8,328.6,0.000000,0.000000,0.00,0.0,0.0,1.2,-0.57,-0.04,0.71,-20.11,-6.63,-0.49,55,67,247
402,63275193,-170.7,0.0,-3.3,37.6,328.7,0.000000,0.000000,0.00,0.0,0.0,1.2,-0.54,-0.05,0.73,-20.18,-9.71,-1.75,55,67,247
403,63275291,-170.7,0.0,-3.4,37.0,329.0,0.000000,0.000000,0.00,0.0,0.0,1.2,-0.53,-0.04,0.76,-20.95,-15.45,-3.57,55,67,247
404,63275388,-170.7,0.0,-3.3,36.3,329.3,0.000000,0.000000,0.00,0.0,0.0,1.2,-0.53,-0.04,0.80,-21.09,-24.90,-3.50,55,67,247
405,63275485,-170.7,0.0,-3.1,35.4,329.6,0.000000,0.000000,0.00,0.0,0.0,1.2,-0.53,-0.01,0.88,-19.97,-38.55,-1.89,55,67,247
406,63275583,-170.7,0.0,-2.7,34.3,330.0,0.000000,0.000000,0.00,0.0,0.0,1.2,-0.52,0.05,0.96,-15.70,-61.58,0.21,55,67,247
407,63275680,-170.7,0.0,-2.3,32.9,330.4,0.000000,0.000000,0.00,0.0,0.0,1.2,-0.52,0.00,1.04,-6.25,-95.32,2.31,55,67,247
408,63275777,-170.7,0.0,-2.2,31.1,330.7,0.000000,0.000000,0.00,0.0,0.0,1.2,-0.51,-0.04,1.03,-2.12,-127.52,4.34,55,67,247
409,63275875,-170.7,0.0,-2.0,29.1,331.1,0.000000,0.000000,0.00,0.0,0.0,1.2,-0.53,-0.05,1.01,4.53,-151.39,6.09,55,67,247
410,63275972,-170.7,0.0,-1.9,27.6,331.5,0.000000,0.000000,0.00,0.0,0.0,1.2,-0.53,-0.05,0.94,12.16,-166.37,5.04,55,67,247
411,63276069,-170.7,0.0,-1.7,26.4,331.7,0.000000,0.000000,0.00,0.0,0.0,1.2,-0.51,-0.06,0.87,19.30,-171.06,2.10,55,67,247
412,63276167,-170.7,0.0,-1.7,25.3,331.8,0.000000,0.000000,0.00,0.0,0.0,1.2,-0.47,-0.07,0.83,23.15,-168.89,-1.96,55,67,247
413,63276264,-170.7,0.0,-1.6,24.1,332.0,0.000000,0.000000,0.00,0.0,0.0,1.2,-0.42,-0.05,0.83,24.55,-166.44,-5.32,55,67,247
414,63276361,-170.7,0.0,-1.9,22.6,331.8,0.000000,0.000000,0.00,0.0,0.0,1.2,-0.39,-0.06,0.87,22.52,-169.87,-7.63,55,67,247
415,63276459,-170.7,0.0,-2.0,20.9,331.8,0.000000,0.000000,0.00,0.0,0.0,1.2,-0.36,-0.04,0.91,18.32,-180.44,-8.75,55,67,247
416,63276556,-170.7,0.0,-2.0,18.7,331.9,0.000000,0.000000,0.00,0.0,0.0,1.2,-0.31,-0.05,0.93,13.91,-194.86,-9.10,55,67,247
417,63276654,-170.7,0.0,-2.2,16.4,332.1,0.000000,0.000000,0.00,0.0,0.0,1.2,-0.28,-0.06,0.94,9.50,-210.19,-9.17,55,67,247
418,63276751,-170.7,0.0,-2.3,14.4,332.5,0.000000,0.000000,0.00,0.0,0.0,1.2,-0.27,-0.06,0.93,6.14,-221.60,-9.59,55,67,247
419,63276848,-170.7,0.0,-2.3,12.7,332.7,0.000000,0.000000,0.00,0.0,0.0,1.2,-0.25,-0.04,0.90,5.86,-226.29,-9.52,55,67,247
420,63276946,-170.7,0.0,-2.1,11.1,332.9,0.000000,0.000000,0.00,0.0,0.0,1.2,-0.20,-0.04,0.87,6.21,-224.40,-10.15,55,67,247
421,63277043,-170.7,0.0,-1.9,9.4,333.2,0.000000,0.000000,0.00,0.0,0.0,1.2,-0.17,-0.03,0.86,2.78,-216.00,-11.55,55,67,247
422,63277140,-170.7,0.0,-1.8,7.9,333.4,0.000000,0.000000,0.00,0.0,0.0,1.2,-0.15,-0.03,0.85,-2.05,-201.51,-13.79,55,67,247
423,63277238,-170.7,0.0,-1.4,6.4,333.7,0.000000,0.000000,0.00,0.0,0.0,1.2,-0.12,-0.01,0.83,-4.01,-180.37,-15.19,55,67,247
424,63277335,-170.7,0.0,-1.1,5.1,333.8,0.000000,0.000000,0.00,0.0,0.0,1.2,-0.09,-0.01,0.85,-4.08,-153.56,-14.70,55,67,247
425,63277432,-170.7,0.0,-0.9,4.2,333.8,0.000000,0.000000,0.00,0.0,0.0,1.2,-0.08,-0.01,0.87,-2.54,-125.70,-13.30,55,67,247
426,63277530,-170.7,0.0,-0.9,3.6,333.8,0.000000,0.000000,0.00,0.0,0.0,1.2,-0.07,-0.02,0.87,-0.37,-98.89,-9.94,55,67,247
427,63277627,-170.7,0.0,-1.2,3.2,333.9,0.000000,0.000000,0.00,0.0,0.0,1.2,-0.06,-0.03,0.86,-0.86,-72.50,-5.25,55,67,247
428,63277724,-170.7,0.0,-1.5,3.1,334.1,0.000000,0.000000,0.00,0.0,0.0,1.2,-0.06,-0.03,0.85,-3.10,-47.72,0.35,55,67,247
429,63277822,-170.7,0.0,-1.9,2.7,334.1,0.000000,0.000000,0.00,0.0,0.0,1.2,-0.04,-0.04,0.88,-5.55,-26.02,6.09,55,67,247
430,63277919,-170.7,0.0,-2.4,2.1,334.1,0.000000,0.000000,0.00,0.0,0.0,1.2,0.01,-0.06,0.87,-11.29,-9.01,9.80,55,67,247
431,63278017,-170.7,0.0,-2.8,1.5,334.1,0.000000,0.000000,0.00,0.0,0.0,1.2,0.04,-0.05,0.93,-15.07,2.54,11.13,55,67,247
432,63278114,-170.7,0.0,-3.1,1.0,334.2,0.000000,0.000000,0.00,0.0,0.0,1.2,0.06,-0.06,0.97,-18.57,7.79,11.13,55,67,247
433,63278211,-170.7,0.0,-3.4,0.4,334.3,0.000000,0.000000,0.00,0.0,0.0,1.2,0.07,-0.07,1.01,-20.11,7.72,9.66,55,67,247
434,63278309,-170.7,0.0,-3.6,-0.2,334.3,0.000000,0.000000,0.00,0.0,0.0,1.2,0.06,-0.06,1.06,-18.92,4.43,8.61,55,67,247
435,63278406,-170.7,0.0,-3.9,-0.7,334.2,0.000000,0.000000,0.00,0.0,0.0,1.2,0.05,-0.06,1.08,-15.28,-0.26,8.05,55,67,247
436,63278503,-170.7,0.0,-4.0,-1.3,334.1,0.000000,0.000000,0.00,0.0,0.0,1.2,0.04,-0.06,1.08,-10.24,-4.32,7.77,55,67,247
437,63278601,-170.7,0.0,-4.2,-1.8,334.0,0.000000,0.000000,0.00,0.0,0.0,1.2,0.04,-0.07,1.07,-5.83,-6.35,7.84,55,67,247
438,63278698,-170.7,0.0,-4.4,-2.0,333.9,0.000000,0.000000,0.00,0.0,0.0,1.2,0.04,-0.08,1.04,-1.91,-5.02,8.05,55,67,247
439,63278795,-170.7,0.0,-4.5,-2.2,333.9,0.000000,0.000000,0.00,0.0,0.0,1.2,0.04,-0.08,1.01,1.10,-0.68,8.47,55,67,247
440,63278893,-170.7,0.0,-4.7,-2.4,334.0,0.000000,0.000000,0.00,0.0,0.0,1.2,0.05,-0.09,0.99,0.54,5.90,9.03,55,67,247
441,63278990,-170.7,0.0,-4.8,-2.5,334.1,0.000000,0.000000,0.00,0.0,0.0,1.2,0.05,-0.09,0.98,-0.51,13.81,9.31,55,67,247
442,63279087,-170.7,0.0,-4.7,-2.6,334.2,0.000000,0.000000,0.00,0.0,0.0,1.2,0.06,-0.08,0.99,-0.58,20.67,9.38,55,67,247
443,63279185,-170.7,0.0,-4.5,-2.8,334.2,0.000000,0.000000,0.00,0.0,0.0,1.2,0.08,-0.07,1.01,-0.58,23.96,9.38,55,67,247
444,63279282,-170.7,0.0,-4.4,-3.2,334.3,0.000000,0.000000,0.00,0.0,0.0,1.2,0.10,-0.07,1.02,-1.28,23.40,8.54,55,67,247
445,63279380,-170.7,0.0,-4.4,-3.6,334.3,0.000000,0.000000,0.00,0.0,0.0,1.2,0.11,-0.07,1.02,-1.84,20.46,6.65,55,67,247
446,63279477,-170.7,0.0,-4.3,-4.0,334.3,0.000000,0.000000,0.00,0.0,0.0,1.2,0.11,-0.07,1.01,-1.70,17.10,4.13,55,67,247
447,63279574,-170.7,0.0,-4.0,-4.3,334.3,0.000000,0.000000,0.00,0.0,0.0,1.2,0.10,-0.05,1.01,-1.21,14.44,1.82,55,67,247
448,63279672,-170.7,0.0,-3.4,-4.5,334.2,0.000000,0.000000,0.00,0.0,0.0,1.2,0.19,0.01,1.99,11.53,3.24,0.35,55,67,247
449,63279769,-170.7,0.0,-2.7,-5.0,334.2,0.000000,0.000000,0.00,0.0,0.0,1.2,0.11,0.01,1.43,28.33,-23.01,-0.21,55,67,247
450,63279866,-170.7,0.0,-2.9,-5.5,334.1,0.000000,0.000000,0.00,0.0,0.0,1.2,0.10,-0.11,0.88,28.26,-17.06,-3.22,55,67,247
451,63279964,-170.7,0.0,-2.9,-5.2,334.0,0.000000,0.000000,0.00,0.0,0.0,1.2,0.05,-0.06,1.03,30.85,-8.38,-7.56,55,67,247
452,63280061,-170.7,0.0,-2.6,-4.6,333.8,0.000000,0.000000,0.00,0.0,0.0,1.2,0.01,-0.04,0.98,33.30,2.96,-6.37,55,67,247
453,63280158,-170.7,0.0,-2.2,-3.9,333.6,0.000000,0.000000,0.00,0.0,0.0,1.2,0.01,-0.03,1.03,30.36,4.57,-3.71,55,67,247
454,63280256,-170.7,0.0,-2.1,-3.4,333.4,0.000000,0.000000,0.00,0.0,0.0,1.2,0.03,-0.04,1.01,26.72,2.75,0.35,55,67,247
455,63280353,-170.7,0.0,-2.1,-3.1,333.2,0.000000,0.000000,0.00,0.0,0.0,1.2,0.03,-0.03,1.04,26.51,8.56,1.40,55,67,247
456,63280451,-170.7,0.0,-2.0,-2.6,332.9,0.000000,0.000000,0.00,0.0,0.0,1.2,0.01,-0.01,0.80,17.83,22.49,-0.00,55,67,247
457,63280548,-170.7,0.0,-2.2,-2.1,332.7,0.000000,0.000000,0.00,0.0,0.0,1.2,0.01,-0.05,1.01,19.44,21.30,-0.35,55,67,247
458,63280645,-170.7,0.0,-2.1,-1.7,332.4,0.000000,0.000000,0.00,0.0,0.0,1.2,0.01,-0.02,1.00,14.40,15.84,-0.98,55,67,247
459,63280743,-170.7,0.0,-2.1,-1.4,332.0,0.000000,0.000000,0.00,0.0,0.0,1.2,0.01,-0.03,1.03,11.46,13.11,-1.61,55,67,247
460,63280840,-170.7,0.0,-2.0,-1.1,331.6,0.000000,0.000000,0.00,0.0,0.0,1.2,-0.01,-0.02,0.99,9.92,11.15,-4.83,55,67,247
461,63280937,-170.7,0.0,-1.8,-0.6,331.3,0.000000,0.000000,0.00,0.0,0.0,1.2,-0.03,-0.00,0.99,9.29,10.17,-6.65,55,67,247
462,63281035,-170.7,0.0,-1.7,-0.1,330.9,0.000000,0.000000,0.00,0.0,0.0,1.2,-0.05,-0.01,0.98,9.29,9.96,-6.30,55,67,247
463,63281132,-170.7,0.0,-1.3,0.4,330.6,0.000000,0.000000,0.00,0.0,0.0,1.2,-0.06,0.02,0.97,10.41,11.15,-6.79,55,67,247
464,63281229,-170.7,0.0,-1.1,0.9,330.2,0.000000,0.000000,0.00,0.0,0.0,1.2,-0.06,0.01,0.99,11.04,12.20,-6.02,55,67,247
465,63281327,-170.7,0.0,-1.2,1.0,329.8,0.000000,0.000000,0.00,0.0,0.0,1.2,0.00,-0.02,1.09,10.41,13.25,-4.90,55,67,247
466,63281424,-170.7,0.0,-1.4,0.6,329.5,0.000000,0.000000,0.00,0.0,0.0,1.2,0.03,-0.05,1.02,-0.16,0.93,-3.78,55,67,247
467,63281521,-170.7,0.0,-1.8,0.1,329.4,0.000000,0.000000,0.00,0.0,0.0,1.2,0.04,-0.04,0.98,-0.65,0.30,-3.22,55,67,247
468,63281619,-170.7,0.0,-1.9,-0.5,329.2,0.000000,0.000000,0.00,0.0,0.0,1.2,0.06,-0.03,1.02,-0.30,0.86,-3.78,55,67,247
469,63281716,-170.7,0.0,-2.0,-1.1,329.0,0.000000,0.000000,0.00,0.0,0.0,1.2,0.06,-0.03,0.98,-0.23,0.86,-3.85,55,67,247
470,63281814,-170.7,0.0,-1.9,-1.7,328.9,0.000000,0.000000,0.00,0.0,0.0,1.2,0.08,-0.03,1.01,-1.70,-0.33,-2.87,55,67,247
471,63281911,-170.7,0.0,-2.0,-2.2,328.8,0.000000,0.000000,0.00,0.0,0.0,1.2,0.05,-0.03,1.00,-0.51,0.58,-3.01,55,67,247
472,63282008,-170.7,0.0,-1.6,-2.0,328.6,0.000000,0.000000,0.00,0.0,0.0,1.2,0.01,0.00,1.00,-0.09,1.07,-1.82,55,67,247
473,63282106,-170.7,0.0,-1.4,-1.5,328.5,0.000000,0.000000,0.00,0.0,0.0,1.2,0.00,-0.01,1.00,0.26,1.42,-0.21,55,67,247
474,63282203,-170.7,0.0,-1.2,-1.1,328.4,0.000000,0.000000,0.00,0.0,0.0,1.2,0.00,-0.01,1.00,0.12,1.35,-0.28,55,67,247
475,63282300,-170.7,0.0,-1.1,-0.9,328.2,0.000000,0.000000,0.00,0.0,0.0,1.2,-0.00,-0.01,1.00,0.19,1.49,-0.07,55,67,247
476,63282398,-170.7,0.0,-1.1,-0.7,328.0,0.000000,0.000000,0.00,0.0,0.0,1.2,-0.00,-0.01,1.00,-0.16,0.93,0.56,55,67,247
477,63282495,-170.7,0.0,-1.0,-0.4,327.8,0.000000,0.000000,0.00,0.0,0.0,1.2,-0.02,-0.03,1.01,-0.30,0.86,-0.28,55,67,247
478,63282592,-170.7,0.0,-1.0,-0.5,327.6,0.000000,0.000000,0.00,0.0,0.0,1.2,0.01,-0.00,0.99,0.33,1.21,-0.42,55,67,247
479,63282690,-170.7,0.0,-0.8,-0.1,327.5,0.000000,0.000000,0.00,0.0,0.0,1.2,-0.04,-0.01,1.00,-1.98,-1.59,-1.12,55,67,247
480,63282787,-170.7,0.0,-1.1,-0.6,327.4,0.000000,0.000000,0.00,0.0,0.0,1.2,0.06,-0.03,0.99,0.47,1.07,-0.28,55,67,247
481,63282884,-170.7,0.0,-1.2,-0.5,327.2,0.000000,0.000000,0.00,0.0,0.0,1.2,-0.01,-0.01,0.99,2.01,3.59,-0.07,55,67,247
482,63282982,-170.7,0.0,-1.1,-0.4,327.0,0.000000,0.000000,0.00,0.0,0.0,1.2,0.01,-0.01,1.01,0.54,1.63,1.82,55,67,247
483,63283079,-170.7,0.0,-1.3,-0.8,327.0,0.000000,0.000000,0.00,0.0,0.0,1.2,0.04,-0.05,0.99,-0.51,0.09,7.77,55,67,247
484,63283177,-170.7,0.0,-1.8,-0.6,327.0,0.000000,0.000000,0.00,0.0,0.0,1.2,-0.07,-0.07,1.01,-0.16,0.37,7.42,55,67,247
485,63283274,-170.7,0.0,-1.7,-0.2,327.0,0.000000,0.000000,0.00,0.0,0.0,1.2,-0.01,-0.02,1.01,-1.00,-1.10,-5.60,55,67,247
486,63283371,-170.6,0.0,-2.2,-0.2,326.9,0.000000,0.000000,0.00,0.0,0.0,1.2,-0.00,-0.10,0.98,-1.63,-1.59,-13.02,55,67,247
487,63283469,-170.6,0.0,-2.8,-0.3,326.8,0.000000,0.000000,0.00,0.0,0.0,1.2,0.03,-0.09,1.00,1.24,1.70,-18.69,55,67,247
488,63283566,-170.6,0.0,-3.2,-0.8,326.6,0.000000,0.000000,0.00,0.0,0.0,1.2,0.05,-0.09,1.01,-3.03,-2.92,-22.68,55,67,247
489,63283663,-170.7,0.0,-3.0,-1.4,326.5,0.000000,0.000000,0.00,0.0,0.0,1.2,0.11,-0.03,0.96,1.59,1.14,-25.41,55,67,247
490,63283761,-170.7,0.0,-2.5,-1.7,326.2,0.000000,0.000000,0.00,0.0,0.0,1.2,0.03,0.08,1.01,2.01,3.52,-28.63,55,67,247
491,63283858,-170.7,0.0,-2.0,-1.3,326.0,0.000000,0.000000,0.00,0.0,0.0,1.2,-0.12,0.13,0.99,-1.91,-1.80,-23.31,55,67,247
492,63283955,-170.6,0.0,-1.5,-0.9,325.9,0.000000,0.000000,0.00,0.0,0.0,1.2,-0.10,0.12,0.99,-0.93,-1.31,-11.76,55,67,247
493,63284053,-170.6,0.0,-1.0,-0.5,325.9,0.000000,0.000000,0.00,0.0,0.0,1.2,-0.05,0.06,0.99,0.05,0.72,-1.89,55,67,247
494,63284150,-170.6,0.0,-0.9,-0.3,326.0,0.000000,0.000000,0.00,0.0,0.0,1.2,0.01,-0.03,1.01,0.26,0.93,0.98,55,67,247
495,63284247,-170.6,0.0,-0.9,-0.4,326.1,0.000000,0.000000,0.00,0.0,0.0,1.2,0.01,-0.01,0.99,-0.37,0.16,-0.49,55,67,247
496,63284345,-170.7,0.0,-0.8,-0.3,326.1,0.000000,0.000000,0.00,0.0,0.0,1.2,0.00,-0.01,1.00,0.33,1.14,-0.49,55,67,247
497,63284442,-170.7,0.0,-0.7,-0.1,326.1,0.000000,0.000000,0.00,0.0,0.0,1.2,-0.00,-0.01,1.00,0.26,1.00,-0.49,55,67,247
498,63284540,-170.7,0.0,-0.7,-0.1,326.1,0.000000,0.000000,0.00,0.0,0.0,1.2,0.00,-0.01,1.00,0.12,0.79,-0.49,55,67,247
499,63284637,-170.7,0.0,-0.6,-0.1,326.1,0.000000,0.000000,0.00,0.0,0.0,1.2,-0.00,-0.01,1.00,0.19,1.00,-0.42,55,67,247
500,63284734,-170.7,0.0,-0.6,0.0,326.1,0.000000,0.000000,0.00,0.0,0.0,1.2,-0.00,-0.01,1.00,0.12,0.79,-0.42,55,67,247
501,63284832,-170.7,0.0,-0.5,0.1,326.2,0.000000,0.000000,0.00,0.0,0.0,1.2,-0.00,-0.01,1.00,-0.16,0.44,-0.42,55,67,247
502,63284929,-170.7,0.0,-0.5,0.1,326.3,0.000000,0.000000,0.00,0.0,0.0,1.2,0.00,-0.01,1.00,-0.16,0.58,-0.49,55,67,247
503,63285026,-170.7,0.0,-0.5,0.1,326.4,0.000000,0.000000,0.00,0.0,0.0,1.2,-0.00,-0.01,1.00,-0.02,0.72,-0.56,55,67,247
504,63285124,-170.7,0.0,-0.4,0.2,326.4,0.000000,0.000000,0.00,0.0,0.0,1.2,-0.00,-0.01,1.00,-0.09,0.58,-0.49,55,67,247
505,63285221,-170.7,0.0,-0.5,0.1,326.5,0.000000,0.000000,0.00,0.0,0.0,1.2,0.00,-0.01,1.00,-0.09,0.58,-0.49,55,67,247
506,63285318,-170.7,0.0,-0.4,0.2,326.6,0.000000,0.000000,0.00,0.0,0.0,1.2,-0.00,-0.01,1.00,-0.02,0.72,-0.49,55,67,247
