count,timestamp,vane,wing,roll,pitch,yaw,lat,lon,speed,drag,lift,thrust,acc_x,acc_y,acc_z,gyro_x,gyro_y,gyro_z,hours,min,sec
0,46798640,-170.5,0.0,-0.1,-0.1,335.4,0.000000,0.000000,0.00,0.0,0.0,1.2,0.00,-0.00,1.00,-0.09,0.65,-0.42,55,67,247
1,46798737,-170.5,0.0,-0.1,-0.2,335.4,0.000000,0.000000,0.00,0.0,0.0,1.2,0.00,-0.00,1.00,-0.09,0.58,-0.42,55,67,247
2,46798835,-170.5,0.0,-0.1,-0.2,335.4,0.000000,0.000000,0.00,0.0,0.0,1.2,0.01,-0.00,1.00,-0.09,0.65,-0.49,55,67,247
3,46798932,-170.5,0.0,-0.2,-0.2,335.4,0.000000,0.000000,0.00,0.0,0.0,1.2,0.00,-0.00,1.00,-0.02,0.72,-0.42,55,67,247
4,46799029,-170.5,0.0,-0.2,-0.2,335.4,0.000000,0.000000,0.00,0.0,0.0,1.2,0.00,-0.00,1.00,-0.02,0.65,-0.49,55,67,247
5,46799127,-170.5,0.0,-0.2,-0.2,335.4,0.000000,0.000000,0.00,0.0,0.0,1.2,0.01,-0.00,1.00,-0.09,0.65,-0.42,55,67,247
6,46799224,-170.5,0.0,-0.2,-0.2,335.4,0.000000,0.000000,0.00,0.0,0.0,1.2,0.00,-0.00,1.00,-0.09,0.65,-0.42,55,67,247
7,46799322,-170.5,0.0,-0.2,-0.2,335.3,0.000000,0.000000,0.00,0.0,0.0,1.2,0.00,-0.00,1.00,-0.09,0.58,-0.42,55,67,247
8,46799419,-170.5,0.0,-0.2,-0.2,335.3,0.000000,0.000000,0.00,0.0,0.0,1.2,0.00,-0.00,1.00,-0.09,0.65,-0.42,55,67,247
9,46799516,-170.5,0.0,-0.2,-0.2,335.3,0.000000,0.000000,0.00,0.0,0.0,1.2,0.00,-0.00,1.00,-0.02,0.65,-0.42,55,67,247
10,46799614,-170.5,0.0,-0.2,-0.2,335.2,0.000000,0.000000,0.00,0.0,0.0,1.2,0.00,-0.00,1.00,-0.09,0.51,-0.49,55,67,247
11,46799711,-170.5,0.0,-0.2,-0.2,335.2,0.000000,0.000000,0.00,0.0,0.0,1.2,0.00,-0.00,1.00,0.05,0.65,-0.49,55,67,247
12,46799808,-170.5,0.0,-0.2,-0.2,335.2,0.000000,0.000000,0.00,0.0,0.0,1.2,0.00,-0.00,1.00,-0.02,0.65,-0.49,55,67,247
13,46799906,-170.5,0.0,-0.2,-0.2,335.2,0.000000,0.000000,0.00,0.0,0.0,1.2,0.00,-0.00,1.00,-0.09,0.58,-0.49,55,67,247
14,46800003,-170.5,0.0,-0.2,-0.2,335.2,0.000000,0.000000,0.00,0.0,0.0,1.2,0.00,-0.00,1.00,-0.09,0.65,-0.42,55,67,247
15,46800100,-170.5,0.0,-0.2,-0.2,335.2,0.000000,0.000000,0.00,0.0,0.0,1.2,0.00,-0.00,1.00,-0.09,0.65,-0.49,55,67,247
16,46800198,-170.5,0.0,-0.2,-0.2,335.2,0.000000,0.000000,0.00,0.0,0.0,1.2,0.00,-0.00,1.00,-0.02,0.65,-0.49,55,67,247
17,46800295,-170.5,0.0,-0.2,-0.2,335.2,0.000000,0.000000,0.00,0.0,0.0,1.2,0.00,-0.00,1.00,-0.02,0.65,-0.49,55,67,247
18,46800393,-170.5,0.0,-0.2,-0.2,335.1,0.000000,0.000000,0.00,0.0,0.0,1.2,0.00,-0.00,1.00,-0.02,0.65,-0.42,55,67,247
19,46800490,-170.5,0.0,-0.2,-0.2,335.1,0.000000,0.000000,0.00,0.0,0.0,1.2,0.00,-0.00,1.00,-0.09,0.65,-0.42,55,67,247
20,46800587,-170.5,0.0,-0.2,-0.2,335.1,0.000000,0.000000,0.00,0.0,0.0,1.2,0.00,-0.00,1.00,-0.09,0.58,-0.49,55,67,247
21,46800685,-170.5,0.0,-0.2,-0.2,335.0,0.000000,0.000000,0.00,0.0,0.0,1.2,0.00,-0.00,1.00,-0.02,0.58,-0.42,55,67,247
22,46800782,-170.5,0.0,-0.2,-0.2,335.0,0.000000,0.000000,0.00,0.0,0.0,1.2,0.00,-0.00,1.00,-0.02,0.65,-0.42,55,67,247
23,46800879,-170.5,0.0,-0.2,-0.3,334.9,0.000000,0.000000,0.00,0.0,0.0,1.2,0.00,-0.00,1.00,-0.09,0.65,-0.49,55,67,247
24,46800977,-170.5,0.0,-0.2,-0.3,334.9,0.000000,0.000000,0.00,0.0,0.0,1.2,0.00,-0.00,1.00,-0.02,0.65,-0.49,55,67,247
25,46801074,-170.5,0.0,-0.2,-0.2,334.8,0.000000,0.000000,0.00,0.0,0.0,1.2,0.00,-0.00,1.00,-0.09,0.65,-0.42,55,67,247
26,46801172,-170.5,0.0,-0.2,-0.3,334.8,0.000000,0.000000,0.00,0.0,0.0,1.2,0.00,-0.00,1.00,-0.09,0.58,-0.49,55,67,247
27,46801269,-170.5,0.0,-0.2,-0.2,334.7,0.000000,0.000000,0.00,0.0,0.0,1.2,0.00,-0.00,1.00,-0.09,0.65,-0.49,55,67,247
28,46801366,-170.5,0.0,-0.2,-0.3,334.7,0.000000,0.000000,0.00,0.0,0.0,1.2,0.00,-0.00,1.00,-0.16,0.65,-0.49,55,67,247
29,46801464,-170.5,0.0,-0.2,-0.2,334.6,0.000000,0.000000,0.00,0.0,0.0,1.2,0.00,-0.00,1.00,-0.09,0.58,-0.42,55,67,247
30,46801561,-170.5,0.0,-0.2,-0.2,334.6,0.000000,0.000000,0.00,0.0,0.0,1.2,0.00,-0.00,1.00,-0.16,0.65,-0.49,55,67,247
31,46801658,-170.5,0.0,-0.2,-0.2,334.6,0.000000,0.000000,0.00,0.0,0.0,1.2,0.00,-0.00,1.00,-0.02,0.65,-0.49,55,67,247
32,46801756,-170.5,0.0,-0.2,-0.2,334.5,0.000000,0.000000,0.00,0.0,0.0,1.2,0.00,-0.00,1.00,-0.02,0.58,-0.49,55,67,247
33,46801853,-170.5,0.0,-0.2,-0.2,334.4,0.000000,0.000000,0.00,0.0,0.0,1.2,0.00,-0.00,1.00,-0.02,0.65,-0.42,55,67,247
34,46801950,-170.5,0.0,-0.2,-0.2,334.4,0.000000,0.000000,0.00,0.0,0.0,1.2,0.00,-0.00,1.00,-0.09,0.58,-0.49,55,67,247
35,46802048,-170.5,0.0,-0.3,-0.3,334.3,0.000000,0.000000,0.00,0.0,0.0,1.2,0.00,-0.00,1.00,-0.02,0.58,-0.49,55,67,247
36,46802145,-170.5,0.0,-0.2,-0.3,334.3,0.000000,0.000000,0.00,0.0,0.0,1.2,0.00,-0.00,1.00,-0.09,0.58,-0.49,55,67,247
37,46802242,-170.5,0.0,-0.2,-0.2,334.3,0.000000,0.000000,0.00,0.0,0.0,1.2,0.00,-0.00,1.00,-0.09,0.65,-0.49,55,67,247
38,46802340,-170.5,0.0,-0.2,-0.2,334.3,0.000000,0.000000,0.00,0.0,0.0,1.2,0.00,-0.00,1.00,-0.02,0.65,-0.49,55,67,247
39,46802437,-170.5,0.0,-0.2,-0.2,334.3,0.000000,0.000000,0.00,0.0,0.0,1.2,0.00,-0.00,1.00,-0.02,0.58,-0.49,55,67,247
40,46802535,-170.6,0.0,-0.2,-0.2,334.3,0.000000,0.000000,0.00,0.0,0.0,1.2,0.00,-0.00,1.00,-0.09,0.65,-0.42,55,67,247
41,46802632,-170.6,0.0,-0.2,-0.2,334.3,0.000000,0.000000,0.00,0.0,0.0,1.2,0.00,-0.00,1.00,-0.09,0.58,-0.42,55,67,247
42,46802729,-170.6,0.0,-0.2,-0.2,334.2,0.000000,0.000000,0.00,0.0,0.0,1.2,0.00,-0.00,1.00,-0.02,0.65,-0.42,55,67,247
43,46802827,-170.6,0.0,-0.2,-0.3,334.2,0.000000,0.000000,0.00,0.0,0.0,1.2,0.00,-0.00,1.00,-0.02,0.58,-0.49,55,67,247
44,46802924,-170.6,0.0,-0.2,-0.3,334.1,0.000000,0.000000,0.00,0.0,0.0,1.2,0.00,-0.00,1.00,-0.02,0.72,-0.42,55,67,247
45,46803021,-170.5,0.0,-0.2,-0.2,334.1,0.000000,0.000000,0.00,0.0,0.0,1.2,0.00,-0.00,1.00,-0.02,0.65,-0.42,55,67,247
46,46803119,-170.5,0.0,-0.2,-0.2,334.0,0.000000,0.000000,0.00,0.0,0.0,1.2,0.00,-0.00,1.00,-0.09,0.65,-0.42,55,67,247
47,46803216,-170.5,0.0,-0.1,-0.2,334.1,0.000000,0.000000,0.00,0.0,0.0,1.2,0.00,-0.00,1.00,-0.09,0.65,-0.35,55,67,247
48,46803313,-170.5,0.0,0.0,-0.1,334.3,0.000000,0.000000,0.00,0.0,0.0,1.2,0.00,-0.00,1.00,-0.09,0.65,-0.42,55,67,247
49,46803411,-170.5,0.0,0.0,-0.1,334.4,0.000000,0.000000,0.00,0.0,0.0,1.2,0.00,-0.00,1.00,-0.02,0.65,-0.49,55,67,247
50,46803508,-170.5,0.0,-0.0,-0.1,334.6,0.000000,0.000000,0.00,0.0,0.0,1.2,0.00,-0.00,1.00,-0.02,0.58,-0.49,55,67,247
51,46803605,-170.5,0.0,-0.0,-0.1,334.7,0.000000,0.000000,0.00,0.0,0.0,1.2,0.00,-0.00,1.00,-0.02,0.58,-0.42,55,67,247
52,46803703,-170.5,0.0,-0.2,-0.2,334.6,0.000000,0.000000,0.00,0.0,0.0,1.2,0.00,-0.00,1.00,-0.02,0.58,-0.42,55,67,247
53,46803800,-170.5,0.0,-0.3,-0.3,334.5,0.000000,0.000000,0.00,0.0,0.0,1.2,0.00,-0.00,1.00,-0.09,0.65,-0.49,55,67,247
54,46803898,-170.5,0.0,-0.3,-0.3,334.4,0.000000,0.000000,0.00,0.0,0.0,1.2,0.00,-0.00,1.00,-0.16,0.65,-0.42,55,67,247
55,46803995,-170.5,0.0,-0.3,-0.3,334.3,0.000000,0.000000,0.00,0.0,0.0,1.2,0.00,-0.00,1.00,-0.02,0.65,-0.42,55,67,247
56,46804092,-170.5,0.0,-0.3,-0.3,334.2,0.000000,0.000000,0.00,0.0,0.0,1.2,0.00,-0.00,1.00,-0.09,0.65,-0.42,55,67,247
57,46804190,-170.5,0.0,-0.1,-0.1,334.3,0.000000,0.000000,0.00,0.0,0.0,1.2,0.00,-0.00,1.00,-0.02,0.65,-0.42,55,67,247
58,46804287,-170.5,0.0,0.0,-0.1,334.5,0.000000,0.000000,0.00,0.0,0.0,1.2,0.00,-0.00,1.00,-0.09,0.72,-0.49,55,67,247
59,46804384,-170.5,0.0,0.1,-0.1,334.7,0.000000,0.000000,0.00,0.0,0.0,1.2,0.00,-0.00,1.00,0.05,0.65,-0.49,55,67,247
60,46804482,-170.5,0.0,0.0,-0.1,334.9,0.000000,0.000000,0.00,0.0,0.0,1.2,0.00,-0.00,1.00,-0.09,0.58,-0.35,55,67,247
61,46804579,-170.5,0.0,-0.0,-0.1,335.0,0.000000,0.000000,0.00,0.0,0.0,1.2,0.00,-0.00,1.00,-0.02,0.65,-0.49,55,67,247
62,46804676,-170.5,0.0,-0.1,-0.2,335.0,0.000000,0.000000,0.00,0.0,0.0,1.2,0.00,-0.00,1.00,-0.02,0.65,-0.42,55,67,247
63,46804774,-170.5,0.0,-0.3,-0.3,334.9,0.000000,0.000000,0.00,0.0,0.0,1.2,0.00,-0.00,1.00,-0.09,0.58,-0.42,55,67,247
64,46804871,-170.5,0.0,-0.3,-0.3,334.7,0.000000,0.000000,0.00,0.0,0.0,1.2,0.00,-0.00,1.00,-0.09,0.65,-0.42,55,67,247
65,46804969,-170.5,0.0,-0.3,-0.2,334.7,0.000000,0.000000,0.00,0.0,0.0,1.2,0.00,-0.00,1.00,-0.02,0.65,-0.49,55,67,247
66,46805066,-170.5,0.0,-0.3,-0.3,334.6,0.000000,0.000000,0.00,0.0,0.0,1.2,0.00,-0.00,1.00,-0.09,0.58,-0.42,55,67,247
67,46805163,-170.5,0.0,-0.2,-0.2,334.6,0.000000,0.000000,0.00,0.0,0.0,1.2,0.00,-0.00,1.00,-0.02,0.65,-0.42,55,67,247
68,46805261,-170.5,0.0,-0.2,-0.2,334.6,0.000000,0.000000,0.00,0.0,0.0,1.2,0.00,-0.00,1.00,-0.09,0.65,-0.42,55,67,247
69,46805358,-170.5,0.0,-0.1,-0.2,334.6,0.000000,0.000000,0.00,0.0,0.0,1.2,0.00,-0.00,1.00,0.05,0.65,-0.42,55,67,247
70,46805455,-170.5,0.0,-0.1,-0.2,334.6,0.000000,0.000000,0.00,0.0,0.0,1.2,0.00,-0.00,1.00,-0.16,0.65,-0.49,55,67,247
71,46805553,-170.5,0.0,-0.2,-0.2,334.6,0.000000,0.000000,0.00,0.0,0.0,1.2,0.00,-0.00,1.00,-0.09,0.65,-0.49,55,67,247
72,46805650,-170.5,0.0,-0.1,-0.1,334.6,0.000000,0.000000,0.00,0.0,0.0,1.2,0.00,-0.00,1.00,-0.09,0.58,-0.42,55,67,247
73,46805747,-170.5,0.0,-0.2,-0.2,334.6,0.000000,0.000000,0.00,0.0,0.0,1.2,0.00,-0.00,1.00,-0.09,0.65,-0.49,55,67,247
74,46805845,-170.5,0.0,-0.2,-0.2,334.6,0.000000,0.000000,0.00,0.0,0.0,1.2,0.00,-0.00,1.00,-0.02,0.72,-0.49,55,67,247
75,46805942,-170.5,0.0,-0.2,-0.2,334.6,0.000000,0.000000,0.00,0.0,0.0,1.2,0.00,-0.00,1.00,-0.02,0.58,-0.42,55,67,247
76,46806040,-170.5,0.0,-0.2,-0.2,334.5,0.000000,0.000000,0.00,0.0,0.0,1.2,0.00,-0.00,1.00,-0.09,0.65,-0.42,55,67,247
77,46806137,-170.6,0.0,-0.2,-0.2,334.5,0.000000,0.000000,0.00,0.0,0.0,1.2,0.00,-0.00,1.00,-0.02,0.72,-0.49,55,67,247
78,46806234,-170.6,0.0,-0.1,-0.2,334.7,0.000000,0.000000,0.00,0.0,0.0,1.2,0.00,-0.00,1.00,-0.09,0.65,-0.42,55,67,247
79,46806332,-170.6,0.0,-0.1,-0.1,334.8,0.000000,0.000000,0.00,0.0,0.0,1.2,0.00,-0.00,1.00,-0.09,0.65,-0.42,55,67,247
80,46806429,-170.5,0.0,-0.1,-0.1,334.8,0.000000,0.000000,0.00,0.0,0.0,1.2,0.00,-0.00,1.00,-0.02,0.65,-0.42,55,67,247
81,46806526,-170.5,0.0,-0.1,-0.1,334.9,0.000000,0.000000,0.00,0.0,0.0,1.2,0.00,-0.00,1.00,-0.09,0.65,-0.42,55,67,247
82,46806624,-170.5,0.0,-0.1,-0.2,335.0,0.000000,0.000000,0.00,0.0,0.0,1.2,0.00,-0.00,1.00,-0.02,0.72,-0.49,55,67,247
83,46806721,-170.5,0.0,-0.2,-0.2,334.8,0.000000,0.000000,0.00,0.0,0.0,1.2,0.00,-0.00,1.00,-0.02,0.65,-0.42,55,67,247
84,46806818,-170.5,0.0,-0.2,-0.2,334.8,0.000000,0.000000,0.00,0.0,0.0,1.2,0.00,-0.00,1.00,-0.09,0.65,-0.42,55,67,247
85,46806916,-170.5,0.0,-0.2,-0.3,334.7,0.000000,0.000000,0.00,0.0,0.0,1.2,0.00,-0.00,1.00,-0.09,0.65,-0.42,55,67,247
86,46807013,-170.5,0.0,-0.3,-0.2,334.6,0.000000,0.000000,0.00,0.0,0.0,1.2,0.00,-0.00,1.00,-0.09,0.65,-0.42,55,67,247
87,46807111,-170.5,0.0,-0.2,-0.2,334.6,0.000000,0.000000,0.00,0.0,0.0,1.2,0.00,-0.00,1.00,-0.09,0.65,-0.42,55,67,247
88,46807208,-170.5,0.0,-0.2,-0.2,334.6,0.000000,0.000000,0.00,0.0,0.0,1.2,0.00,-0.00,1.00,-0.09,0.65,-0.42,55,67,247
89,46807305,-170.5,0.0,-0.2,-0.2,334.6,0.000000,0.000000,0.00,0.0,0.0,1.2,0.00,-0.00,1.00,-0.09,0.65,-0.49,55,67,247
90,46807403,-170.5,0.0,-0.2,-0.2,334.6,0.000000,0.000000,0.00,0.0,0.0,1.2,0.00,-0.00,1.00,-0.09,0.58,-0.42,55,67,247
91,46807500,-170.5,0.0,-0.2,-0.2,334.7,0.000000,0.000000,0.00,0.0,0.0,1.2,0.00,-0.00,1.00,-0.09,0.65,-0.49,55,67,247
92,46807597,-170.5,0.0,-0.2,-0.2,334.7,0.000000,0.000000,0.00,0.0,0.0,1.2,0.00,-0.00,1.00,-0.02,0.65,-0.42,55,67,247
93,46807695,-170.5,0.0,-0.3,-0.3,334.5,0.000000,0.000000,0.00,0.0,0.0,1.2,0.00,-0.00,1.00,-0.09,0.58,-0.42,55,67,247
94,46807792,-170.5,0.0,-0.3,-0.3,334.4,0.000000,0.000000,0.00,0.0,0.0,1.2,0.00,-0.00,1.00,-0.02,0.58,-0.49,55,67,247
95,46807889,-170.5,0.0,-0.3,-0.3,334.3,0.000000,0.000000,0.00,0.0,0.0,1.2,0.00,-0.00,1.00,-0.02,0.72,-0.42,55,67,247
96,46807987,-170.5,0.0,-0.3,-0.3,334.2,0.000000,0.000000,0.00,0.0,0.0,1.2,0.00,-0.00,1.00,-0.09,0.58,-0.42,55,67,247
97,46808084,-170.5,0.0,-0.3,-0.3,334.1,0.000000,0.000000,0.00,0.0,0.0,1.2,0.00,-0.00,1.00,-0.09,0.65,-0.49,55,67,247
98,46808181,-170.5,0.0,-0.2,-0.2,334.2,0.000000,0.000000,0.00,0.0,0.0,1.2,0.00,-0.00,1.00,-0.16,0.72,-0.49,55,67,247
99,46808279,-170.5,0.0,-0.1,-0.1,334.3,0.000000,0.000000,0.00,0.0,0.0,1.2,0.00,-0.00,1.00,-0.02,0.65,-0.42,55,67,247
100,46808376,-170.5,0.0,-0.1,-0.2,334.4,0.000000,0.000000,0.00,0.0,0.0,1.2,0.00,-0.00,1.00,-0.02,0.65,-0.42,55,67,247
101,46808474,-170.5,0.0,-0.1,-0.1,334.5,0.000000,0.000000,0.00,0.0,0.0,1.2,0.00,-0.00,1.00,-0.09,0.65,-0.49,55,67,247
102,46808571,-170.5,0.0,-0.1,-0.2,334.5,0.000000,0.000000,0.00,0.0,0.0,1.2,0.01,-0.00,1.00,-0.16,0.72,-0.49,55,67,247
103,46808668,-170.5,0.0,-0.0,-0.1,334.7,0.000000,0.000000,0.00,0.0,0.0,1.2,0.00,-0.00,1.00,-0.09,0.58,-0.42,55,67,247
104,46808766,-170.5,0.0,0.0,-0.1,334.9,0.000000,0.000000,0.00,0.0,0.0,1.2,0.00,-0.00,1.00,-0.09,0.65,-0.49,55,67,247
105,46808863,-170.5,0.0,-0.0,-0.1,335.0,0.000000,0.000000,0.00,0.0,0.0,1.2,0.00,-0.00,1.00,-0.02,0.65,-0.42,55,67,247
106,46808960,-170.5,0.0,-0.0,-0.1,335.1,0.000000,0.000000,0.00,0.0,0.0,1.2,0.00,-0.00,1.00,-0.09,0.58,-0.56,55,67,247
107,46809058,-170.5,0.0,-0.1,-0.1,335.2,0.000000,0.000000,0.00,0.0,0.0,1.2,0.00,-0.00,1.00,-0.02,0.72,-0.49,55,67,247
108,46809155,-170.5,0.0,-0.1,-0.2,335.3,0.000000,0.000000,0.00,0.0,0.0,1.2,0.00,-0.00,1.00,-0.09,0.65,-0.49,55,67,247
109,46809252,-170.5,0.0,-0.1,-0.1,335.4,0.000000,0.000000,0.00,0.0,0.0,1.2,0.00,-0.00,1.00,-0.09,0.65,-0.42,55,67,247
110,46809350,-170.5,0.0,-0.1,-0.2,335.5,0.000000,0.000000,0.00,0.0,0.0,1.2,0.00,-0.00,1.00,-0.16,0.65,-0.49,55,67,247
111,46809447,-170.5,0.0,-0.1,-0.2,335.5,0.000000,0.000000,0.00,0.0,0.0,1.2,0.00,-0.00,1.00,-0.16,0.65,-0.42,55,67,247
112,46809545,-170.5,0.0,-0.1,-0.2,335.6,0.000000,0.000000,0.00,0.0,0.0,1.2,0.00,-0.00,1.00,-0.09,0.65,-0.42,55,67,247
113,46809642,-170.6,0.0,-0.2,-0.2,335.5,0.000000,0.000000,0.00,0.0,0.0,1.2,0.00,-0.00,1.00,-0.02,0.65,-0.35,55,67,247
114,46809739,-170.6,0.0,-0.3,-0.3,335.4,0.000000,0.000000,0.00,0.0,0.0,1.2,0.00,-0.00,1.00,-0.09,0.65,-0.49,55,67,247
115,46809837,-170.6,0.0,-0.3,-0.3,335.3,0.000000,0.000000,0.00,0.0,0.0,1.2,0.00,-0.00,1.00,-0.02,0.58,-0.42,55,67,247
116,46809934,-170.6,0.0,-0.3,-0.3,335.2,0.000000,0.000000,0.00,0.0,0.0,1.2,0.00,-0.00,1.00,-0.09,0.65,-0.42,55,67,247
117,46810031,-170.6,0.0,-0.3,-0.2,335.1,0.000000,0.000000,0.00,0.0,0.0,1.2,0.00,-0.00,1.00,-0.09,0.65,-0.42,55,67,247
118,46810129,-170.5,0.0,-0.1,-0.2,335.2,0.000000,0.000000,0.00,0.0,0.0,1.2,0.00,-0.00,1.00,-0.02,0.65,-0.42,55,67,247
119,46810226,-170.5,0.0,-0.1,-0.1,335.3,0.000000,0.000000,0.00,0.0,0.0,1.2,0.00,-0.00,1.00,-0.09,0.65,-0.42,55,67,247
120,46810323,-170.5,0.0,-0.1,-0.1,335.4,0.000000,0.000000,0.00,0.0,0.0,1.2,0.00,-0.00,1.00,-0.02,0.65,-0.35,55,67,247
121,46810421,-170.5,0.0,-0.1,-0.1,335.5,0.000000,0.000000,0.00,0.0,0.0,1.2,0.00,-0.00,1.00,-0.09,0.65,-0.49,55,67,247
122,46810518,-170.5,0.0,-0.1,-0.2,335.6,0.000000,0.000000,0.00,0.0,0.0,1.2,0.00,-0.00,1.00,-0.09,0.65,-0.42,55,67,247
123,46810616,-170.5,0.0,-0.1,-0.2,335.6,0.000000,0.000000,0.00,0.0,0.0,1.2,0.01,-0.00,1.00,-0.09,0.65,-0.49,55,67,247
124,46810713,-170.5,0.0,-0.2,-0.2,335.5,0.000000,0.000000,0.00,0.0,0.0,1.2,0.00,-0.00,1.00,-0.09,0.65,-0.49,55,67,247
125,46810810,-170.5,0.0,-0.2,-0.3,335.5,0.000000,0.000000,0.00,0.0,0.0,1.2,0.00,-0.00,1.00,-0.09,0.65,-0.49,55,67,247
126,46810908,-170.5,0.0,-0.2,-0.2,335.4,0.000000,0.000000,0.00,0.0,0.0,1.2,0.00,-0.00,1.00,-0.09,0.58,-0.42,55,67,247
127,46811005,-170.5,0.0,-0.2,-0.2,335.4,0.000000,0.000000,0.00,0.0,0.0,1.2,0.00,-0.00,1.00,-0.02,0.65,-0.42,55,67,247
128,46811102,-170.5,0.0,-0.2,-0.2,335.3,0.000000,0.000000,0.00,0.0,0.0,1.2,0.00,-0.00,1.00,-0.02,0.58,-0.49,55,67,247
129,46811200,-170.5,0.0,-0.1,-0.1,335.5,0.000000,0.000000,0.00,0.0,0.0,1.2,0.00,-0.00,1.00,-0.02,0.65,-0.42,55,67,247
130,46811297,-170.5,0.0,-0.1,-0.1,335.6,0.000000,0.000000,0.00,0.0,0.0,1.2,0.00,-0.00,1.00,-0.09,0.65,-0.49,55,67,247
131,46811394,-170.6,0.0,-0.1,-0.2,335.6,0.000000,0.000000,0.00,0.0,0.0,1.2,0.00,-0.00,1.00,-0.09,0.65,-0.42,55,67,247
132,46811492,-170.6,0.0,-0.1,-0.1,335.7,0.000000,0.000000,0.00,0.0,0.0,1.2,0.00,-0.00,1.00,-0.09,0.65,-0.49,55,67,247
133,46811589,-170.6,0.0,-0.1,-0.2,335.8,0.000000,0.000000,0.00,0.0,0.0,1.2,0.00,-0.00,1.00,-0.09,0.65,-0.42,55,67,247
134,46811687,-170.6,0.0,-0.2,-0.2,335.8,0.000000,0.000000,0.00,0.0,0.0,1.2,0.00,-0.00,1.00,-0.09,0.65,-0.49,55,67,247
135,46811784,-170.6,0.0,-0.2,-0.2,335.8,0.000000,0.000000,0.00,0.0,0.0,1.2,0.00,-0.00,1.00,-0.09,0.58,-0.42,55,67,247
136,46811881,-170.6,0.0,-0.2,-0.1,335.8,0.000000,0.000000,0.00,0.0,0.0,1.2,0.00,-0.00,1.00,-0.09,0.65,-0.42,55,67,247
137,46811979,-170.5,0.0,-0.2,-0.2,335.7,0.000000,0.000000,0.00,0.0,0.0,1.2,0.00,-0.00,1.00,-0.02,0.58,-0.42,55,67,247
138,46812076,-170.5,0.0,-0.2,-0.2,335.8,0.000000,0.000000,0.00,0.0,0.0,1.2,0.00,-0.00,1.00,-0.09,0.65,-0.42,55,67,247
139,46812173,-170.5,0.0,-0.2,-0.2,335.8,0.000000,0.000000,0.00,0.0,0.0,1.2,0.00,-0.00,1.00,-0.02,0.65,-0.42,55,67,247
140,46812271,-170.5,0.0,-0.1,-0.1,335.8,0.000000,0.000000,0.00,0.0,0.0,1.2,0.00,-0.00,1.00,-0.02,0.65,-0.49,55,67,247
141,46812368,-170.5,0.0,-0.1,-0.2,335.9,0.000000,0.000000,0.00,0.0,0.0,1.2,0.00,-0.00,1.00,-0.02,0.65,-0.49,55,67,247
142,46812465,-170.5,0.0,-0.1,-0.2,335.9,0.000000,0.000000,0.00,0.0,0.0,1.2,0.00,-0.00,1.00,-0.09,0.65,-0.42,55,67,247
143,46812563,-170.5,0.0,-0.2,-0.2,335.9,0.000000,0.000000,0.00,0.0,0.0,1.2,0.00,-0.00,1.00,-0.02,0.58,-0.49,55,67,247
144,46812660,-170.5,0.0,-0.2,-0.2,335.9,0.000000,0.000000,0.00,0.0,0.0,1.2,0.00,-0.00,1.00,-0.09,0.58,-0.49,55,67,247
145,46812757,-170.5,0.0,-0.3,-0.2,335.8,0.000000,0.000000,0.00,0.0,0.0,1.2,0.00,-0.00,1.00,-0.09,0.65,-0.49,55,67,247
146,46812855,-170.5,0.0,-0.2,-0.2,335.8,0.000000,0.000000,0.00,0.0,0.0,1.2,0.00,-0.00,1.00,-0.09,0.65,-0.49,55,67,247
147,46812952,-170.5,0.0,-0.2,-0.3,335.8,0.000000,0.000000,0.00,0.0,0.0,1.2,0.01,-0.00,1.00,-0.09,0.58,-0.49,55,67,247
148,46813050,-170.5,0.0,-0.2,-0.3,335.7,0.000000,0.000000,0.00,0.0,0.0,1.2,0.00,-0.00,1.00,-0.09,0.65,-0.49,55,67,247
149,46813147,-170.5,0.0,-0.3,-0.3,335.6,0.000000,0.000000,0.00,0.0,0.0,1.2,0.00,-0.00,1.00,-0.09,0.65,-0.49,55,67,247
150,46813244,-170.5,0.0,-0.3,-0.3,335.5,0.000000,0.000000,0.00,0.0,0.0,1.2,0.00,-0.00,1.00,-0.09,0.58,-0.42,55,67,247
151,46813342,-170.5,0.0,-0.3,-0.3,335.4,0.000000,0.000000,0.00,0.0,0.0,1.2,0.00,-0.00,1.00,-0.16,0.65,-0.49,55,67,247
152,46813439,-170.5,0.0,-0.3,-0.3,335.3,0.000000,0.000000,0.00,0.0,0.0,1.2,0.00,-0.00,1.00,-0.16,0.65,-0.49,55,67,247
153,46813536,-170.5,0.0,-0.3,-0.3,335.2,0.000000,0.000000,0.00,0.0,0.0,1.2,0.00,-0.00,1.00,-0.09,0.65,-0.49,55,67,247
154,46813634,-170.5,0.0,-0.3,-0.2,335.1,0.000000,0.000000,0.00,0.0,0.0,1.2,0.00,-0.00,1.00,-0.09,0.65,-0.42,55,67,247
155,46813731,-170.5,0.0,-0.3,-0.3,335.0,0.000000,0.000000,0.00,0.0,0.0,1.2,0.00,-0.00,1.00,-0.09,0.65,-0.42,55,67,247
156,46813828,-170.5,0.0,-0.3,-0.2,334.9,0.000000,0.000000,0.00,0.0,0.0,1.2,0.00,-0.00,1.00,-0.02,0.65,-0.49,55,67,247
157,46813926,-170.5,0.0,-0.3,-0.2,334.9,0.000000,0.000000,0.00,0.0,0.0,1.2,0.00,-0.00,1.00,-0.09,0.65,-0.42,55,67,247
158,46814023,-170.5,0.0,-0.3,-0.2,334.8,0.000000,0.000000,0.00,0.0,0.0,1.2,0.00,-0.00,1.00,-0.02,0.65,-0.42,55,67,247
159,46814121,-170.5,0.0,-0.2,-0.2,334.8,0.000000,0.000000,0.00,0.0,0.0,1.2,0.00,-0.00,1.00,-0.02,0.58,-0.42,55,67,247
160,46814218,-170.5,0.0,-0.1,-0.2,334.9,0.000000,0.000000,0.00,0.0,0.0,1.2,0.00,-0.00,1.00,-0.09,0.58,-0.42,55,67,247
161,46814315,-170.5,0.0,-0.2,-0.2,334.9,0.000000,0.000000,0.00,0.0,0.0,1.2,0.00,-0.00,1.00,-0.09,0.65,-0.49,55,67,247
162,46814413,-170.5,0.0,-0.1,-0.1,334.9,0.000000,0.000000,0.00,0.0,0.0,1.2,0.00,-0.00,1.00,-0.02,0.65,-0.42,55,67,247
163,46814510,-170.5,0.0,-0.2,-0.2,335.0,0.000000,0.000000,0.00,0.0,0.0,1.2,0.00,-0.00,1.00,-0.09,0.65,-0.35,55,67,247
164,46814607,-170.5,0.0,-0.1,-0.2,335.0,0.000000,0.000000,0.00,0.0,0.0,1.2,0.00,-0.00,1.00,-0.09,0.65,-0.42,55,67,247
165,46814705,-170.5,0.0,-0.1,-0.2,335.0,0.000000,0.000000,0.00,0.0,0.0,1.2,0.00,-0.00,1.00,-0.09,0.65,-0.42,55,67,247
166,46814802,-170.5,0.0,-0.1,-0.2,335.1,0.000000,0.000000,0.00,0.0,0.0,1.2,0.00,-0.00,1.00,-0.02,0.72,-0.42,55,67,247
167,46814899,-170.5,0.0,-0.2,-0.2,335.1,0.000000,0.000000,0.00,0.0,0.0,1.2,0.00,-0.00,1.00,-0.09,0.65,-0.42,55,67,247
168,46814997,-170.5,0.0,-0.1,-0.2,335.1,0.000000,0.000000,0.00,0.0,0.0,1.2,0.00,-0.00,1.00,-0.09,0.58,-0.42,55,67,247
169,46815094,-170.5,0.0,-0.2,-0.2,335.1,0.000000,0.000000,0.00,0.0,0.0,1.2,0.00,-0.00,1.00,-0.02,0.58,-0.49,55,67,247
170,46815192,-170.5,0.0,-0.3,-0.3,335.0,0.000000,0.000000,0.00,0.0,0.0,1.2,0.00,-0.00,0.99,-0.02,0.58,-0.35,55,67,247
171,46815289,-170.5,0.0,-0.4,-0.3,334.8,0.000000,0.000000,0.00,0.0,0.0,1.2,0.00,-0.00,1.00,-0.02,0.58,-0.49,55,67,247
172,46815386,-170.5,0.0,-0.4,-0.3,334.7,0.000000,0.000000,0.00,0.0,0.0,1.2,0.00,-0.00,1.00,-0.09,0.65,-0.42,55,67,247
173,46815484,-170.5,0.0,-0.3,-0.3,334.6,0.000000,0.000000,0.00,0.0,0.0,1.2,0.00,-0.00,1.00,-0.09,0.58,-0.42,55,67,247
174,46815581,-170.5,0.0,-0.3,-0.3,334.5,0.000000,0.000000,0.00,0.0,0.0,1.2,0.00,-0.00,1.00,-0.09,0.65,-0.42,55,67,247
175,46815678,-170.5,0.0,-0.2,-0.2,334.6,0.000000,0.000000,0.00,0.0,0.0,1.2,0.00,-0.00,1.00,0.05,0.65,-0.42,55,67,247
176,46815776,-170.5,0.0,-0.1,-0.2,334.6,0.000000,0.000000,0.00,0.0,0.0,1.2,0.00,-0.00,1.00,-0.09,0.58,-0.42,55,67,247
177,46815873,-170.5,0.0,-0.1,-0.2,334.6,0.000000,0.000000,0.00,0.0,0.0,1.2,0.00,-0.00,1.00,-0.09,0.65,-0.56,55,67,247
178,46815970,-170.5,0.0,-0.2,-0.2,334.7,0.000000,0.000000,0.00,0.0,0.0,1.2,0.00,-0.00,1.00,-0.02,0.58,-0.49,55,67,247
179,46816068,-170.5,0.0,-0.1,-0.2,334.7,0.000000,0.000000,0.00,0.0,0.0,1.2,0.00,-0.00,1.00,-0.09,0.58,-0.42,55,67,247
180,46816165,-170.5,0.0,-0.1,-0.2,334.8,0.000000,0.000000,0.00,0.0,0.0,1.2,0.00,-0.00,1.00,-0.09,0.72,-0.42,55,67,247
181,46816263,-170.5,0.0,-0.1,-0.2,334.8,0.000000,0.000000,0.00,0.0,0.0,1.2,0.00,-0.00,1.00,-0.02,0.58,-0.42,55,67,247
182,46816360,-170.5,0.0,-0.1,-0.2,334.9,0.000000,0.000000,0.00,0.0,0.0,1.2,0.00,-0.00,1.00,-0.02,0.58,-0.42,55,67,247
183,46816457,-170.5,0.0,-0.1,-0.2,334.9,0.000000,0.000000,0.00,0.0,0.0,1.2,0.00,-0.00,1.00,-0.02,0.65,-0.42,55,67,247
184,46816555,-170.5,0.0,-0.1,-0.2,334.9,0.000000,0.000000,0.00,0.0,0.0,1.2,0.00,-0.00,1.00,-0.02,0.65,-0.49,55,67,247
185,46816652,-170.5,0.0,-0.2,-0.2,334.9,0.000000,0.000000,0.00,0.0,0.0,1.2,0.00,-0.00,1.00,-0.09,0.65,-0.42,55,67,247
186,46816749,-170.5,0.0,-0.2,-0.2,334.9,0.000000,0.000000,0.00,0.0,0.0,1.2,0.00,-0.00,1.00,-0.09,0.72,-0.49,55,67,247
187,46816847,-170.5,0.0,-0.2,-0.2,334.9,0.000000,0.000000,0.00,0.0,0.0,1.2,0.00,-0.00,1.00,-0.09,0.65,-0.42,55,67,247
188,46816944,-170.5,0.0,-0.2,-0.2,334.9,0.000000,0.000000,0.00,0.0,0.0,1.2,0.00,-0.00,0.99,-0.02,0.65,-0.42,55,67,247
189,46817041,-170.5,0.0,-0.2,-0.2,334.9,0.000000,0.000000,0.00,0.0,0.0,1.2,0.00,-0.00,1.00,-0.02,0.58,-0.35,55,67,247
190,46817139,-170.5,0.0,-0.3,-0.3,334.8,0.000000,0.000000,0.00,0.0,0.0,1.2,0.00,-0.00,1.00,-0.02,0.65,-0.42,55,67,247
191,46817236,-170.5,0.0,-0.3,-0.3,334.7,0.000000,0.000000,0.00,0.0,0.0,1.2,0.00,-0.00,1.00,-0.09,0.65,-0.42,55,67,247
192,46817333,-170.5,0.0,-0.3,-0.2,334.6,0.000000,0.000000,0.00,0.0,0.0,1.2,0.00,-0.00,1.00,-0.09,0.65,-0.35,55,67,247
193,46817431,-170.5,0.0,-0.3,-0.2,334.5,0.000000,0.000000,0.00,0.0,0.0,1.2,0.00,-0.00,1.00,-0.02,0.58,-0.42,55,67,247
194,46817528,-170.5,0.0,-0.3,-0.2,334.4,0.000000,0.000000,0.00,0.0,0.0,1.2,0.00,-0.00,1.00,-0.09,0.65,-0.42,55,67,247
195,46817626,-170.5,0.0,-0.2,-0.2,334.4,0.000000,0.000000,0.00,0.0,0.0,1.2,0.00,-0.00,1.00,-0.16,0.65,-0.42,55,67,247
196,46817723,-170.5,0.0,-0.1,-0.1,334.6,0.000000,0.000000,0.00,0.0,0.0,1.2,0.00,-0.00,1.00,-0.02,0.58,-0.49,55,67,247
197,46817820,-170.5,0.0,-0.1,-0.2,334.7,0.000000,0.000000,0.00,0.0,0.0,1.2,0.00,-0.00,1.00,-0.09,0.65,-0.42,55,67,247
198,46817918,-170.5,0.0,-0.1,-0.2,334.8,0.000000,0.000000,0.00,0.0,0.0,1.2,0.00,-0.00,1.00,-0.09,0.58,-0.42,55,67,247
199,46818015,-170.5,0.0,-0.1,-0.2,334.8,0.000000,0.000000,0.00,0.0,0.0,1.2,0.00,-0.00,1.00,-0.09,0.65,-0.49,55,67,247
200,46818112,-170.5,0.0,-0.2,-0.2,334.8,0.000000,0.000000,0.00,0.0,0.0,1.2,0.00,-0.00,1.00,-0.09,0.65,-0.42,55,67,247
201,46818210,-170.5,0.0,-0.2,-0.2,334.8,0.000000,0.000000,0.00,0.0,0.0,1.2,0.00,-0.00,1.00,-0.02,0.58,-0.49,55,67,247
202,46818307,-170.5,0.0,-0.2,-0.3,334.7,0.000000,0.000000,0.00,0.0,0.0,1.2,0.00,-0.00,1.00,-0.09,0.65,-0.49,55,67,247
203,46818404,-170.5,0.0,-0.2,-0.2,334.7,0.000000,0.000000,0.00,0.0,0.0,1.2,0.00,-0.00,1.00,-0.02,0.65,-0.49,55,67,247
204,46818502,-170.5,0.0,-0.2,-0.2,334.6,0.000000,0.000000,0.00,0.0,0.0,1.2,0.00,-0.00,1.00,-0.09,0.58,-0.49,55,67,247
205,46818599,-170.5,0.0,-0.1,-0.2,334.7,0.000000,0.000000,0.00,0.0,0.0,1.2,0.00,-0.00,1.00,-0.16,0.65,-0.49,55,67,247
206,46818697,-170.6,0.0,-0.1,-0.1,334.8,0.000000,0.000000,0.00,0.0,0.0,1.2,0.00,-0.00,1.00,-0.09,0.65,-0.49,55,67,247
207,46818794,-170.6,0.0,-0.1,-0.2,334.9,0.000000,0.000000,0.00,0.0,0.0,1.2,0.00,-0.00,1.00,-0.09,0.65,-0.42,55,67,247
208,46818891,-170.6,0.0,-0.1,-0.2,334.9,0.000000,0.000000,0.00,0.0,0.0,1.2,0.00,-0.00,1.00,-0.09,0.65,-0.49,55,67,247
209,46818989,-170.5,0.0,-0.1,-0.2,335.0,0.000000,0.000000,0.00,0.0,0.0,1.2,0.00,-0.00,1.00,-0.16,0.65,-0.42,55,67,247
210,46819086,-170.5,0.0,-0.1,-0.2,335.0,0.000000,0.000000,0.00,0.0,0.0,1.2,0.00,-0.00,1.00,-0.02,0.58,-0.42,55,67,247
211,46819183,-170.5,0.0,-0.2,-0.2,335.0,0.000000,0.000000,0.00,0.0,0.0,1.2,0.00,-0.00,1.00,-0.02,0.72,-0.49,55,67,247
212,46819281,-170.5,0.0,-0.2,-0.2,335.0,0.000000,0.000000,0.00,0.0,0.0,1.2,0.00,-0.00,1.00,-0.09,0.58,-0.49,55,67,247
213,46819378,-170.5,0.0,-0.2,-0.2,335.0,0.000000,0.000000,0.00,0.0,0.0,1.2,0.00,-0.00,1.00,-0.02,0.65,-0.49,55,67,247
214,46819475,-170.5,0.0,-0.2,-0.2,335.1,0.000000,0.000000,0.00,0.0,0.0,1.2,0.00,-0.00,1.00,-0.09,0.65,-0.42,55,67,247
215,46819573,-170.5,0.0,-0.3,-0.2,335.0,0.000000,0.000000,0.00,0.0,0.0,1.2,0.00,-0.00,1.00,-0.16,0.65,-0.42,55,67,247
216,46819670,-170.5,0.0,-0.3,-0.2,334.9,0.000000,0.000000,0.00,0.0,0.0,1.2,0.00,-0.00,1.00,0.05,0.65,-0.42,55,67,247
217,46819768,-170.5,0.0,-0.3,-0.2,334.8,0.000000,0.000000,0.00,0.0,0.0,1.2,0.00,-0.00,1.00,-0.02,0.58,-0.49,55,67,247
218,46819865,-170.5,0.0,-0.3,-0.2,334.7,0.000000,0.000000,0.00,0.0,0.0,1.2,0.00,-0.00,1.00,-0.02,0.58,-0.42,55,67,247
219,46819962,-170.5,0.0,-0.3,-0.3,334.7,0.000000,0.000000,0.00,0.0,0.0,1.2,0.00,-0.00,1.00,-0.02,0.65,-0.49,55,67,247
220,46820060,-170.5,0.0,-0.2,-0.2,334.6,0.000000,0.000000,0.00,0.0,0.0,1.2,0.00,-0.00,1.00,-0.09,0.65,-0.49,55,67,247
221,46820157,-170.5,0.0,-0.2,-0.2,334.6,0.000000,0.000000,0.00,0.0,0.0,1.2,0.00,-0.00,1.00,-0.02,0.65,-0.49,55,67,247
222,46820254,-170.5,0.0,-0.2,-0.2,334.6,0.000000,0.000000,0.00,0.0,0.0,1.2,0.00,-0.00,1.00,-0.09,0.65,-0.49,55,67,247
223,46820352,-170.5,0.0,-0.2,-0.2,334.6,0.000000,0.000000,0.00,0.0,0.0,1.2,0.00,-0.00,1.00,-0.02,0.65,-0.42,55,67,247
224,46820449,-170.5,0.0,-0.2,-0.2,334.5,0.000000,0.000000,0.00,0.0,0.0,1.2,0.00,-0.00,1.00,-0.02,0.65,-0.35,55,67,247
225,46820546,-170.5,0.0,-0.2,-0.2,334.5,0.000000,0.000000,0.00,0.0,0.0,1.2,0.00,-0.00,1.00,-0.02,0.65,-0.49,55,67,247
226,46820644,-170.5,0.0,-0.2,-0.1,334.6,0.000000,0.000000,0.00,0.0,0.0,1.2,0.00,-0.00,1.00,-0.09,0.65,-0.49,55,67,247
227,46820741,-170.5,0.0,-0.1,-0.1,334.7,0.000000,0.000000,0.00,0.0,0.0,1.2,0.00,-0.00,1.00,-0.02,0.65,-0.42,55,67,247
228,46820839,-170.6,0.0,-0.1,-0.1,334.7,0.000000,0.000000,0.00,0.0,0.0,1.2,0.00,-0.00,1.00,-0.09,0.65,-0.49,55,67,247
229,46820936,-170.6,0.0,-0.1,-0.1,334.7,0.000000,0.000000,0.00,0.0,0.0,1.2,0.00,-0.00,1.00,-0.02,0.58,-0.49,55,67,247
230,46821033,-170.6,0.0,-0.1,-0.2,334.8,0.000000,0.000000,0.00,0.0,0.0,1.2,0.00,-0.00,1.00,-0.09,0.72,-0.42,55,67,247
231,46821131,-170.6,0.0,-0.1,-0.2,334.9,0.000000,0.000000,0.00,0.0,0.0,1.2,0.00,-0.00,1.00,-0.02,0.65,-0.49,55,67,247
232,46821228,-170.5,0.0,-0.1,-0.2,334.9,0.000000,0.000000,0.00,0.0,0.0,1.2,0.00,-0.00,1.00,-0.02,0.58,-0.42,55,67,247
233,46821325,-170.5,0.0,-0.1,-0.2,335.0,0.000000,0.000000,0.00,0.0,0.0,1.2,0.00,-0.00,1.00,-0.02,0.58,-0.49,55,67,247
234,46821423,-170.5,0.0,-0.1,-0.2,335.0,0.000000,0.000000,0.00,0.0,0.0,1.2,0.00,-0.00,1.00,-0.02,0.72,-0.49,55,67,247
235,46821520,-170.5,0.0,-0.1,-0.1,335.1,0.000000,0.000000,0.00,0.0,0.0,1.2,0.00,-0.00,1.00,-0.09,0.65,-0.35,55,67,247
236,46821617,-170.5,0.0,-0.2,-0.2,335.0,0.000000,0.000000,0.00,0.0,0.0,1.2,0.00,-0.00,0.99,-0.09,0.65,-0.56,55,67,247
237,46821715,-170.5,0.0,-0.2,-0.3,334.9,0.000000,0.000000,0.00,0.0,0.0,1.2,0.00,-0.00,1.00,-0.09,0.65,-0.49,55,67,247
238,46821812,-170.5,0.0,-0.2,-0.2,334.9,0.000000,0.000000,0.00,0.0,0.0,1.2,0.00,-0.00,1.00,-0.02,0.65,-0.42,55,67,247
239,46821909,-170.5,0.0,-0.2,-0.2,334.8,0.000000,0.000000,0.00,0.0,0.0,1.2,0.00,-0.00,1.00,-0.09,0.58,-0.49,55,67,247
240,46822007,-170.5,0.0,-0.2,-0.2,334.8,0.000000,0.000000,0.00,0.0,0.0,1.2,0.00,-0.00,1.00,-0.02,0.65,-0.49,55,67,247
241,46822104,-170.5,0.0,-0.2,-0.2,334.8,0.000000,0.000000,0.00,0.0,0.0,1.2,0.00,-0.00,0.99,-0.16,0.65,-0.49,55,67,247
242,46822202,-170.5,0.0,-0.2,-0.2,334.8,0.000000,0.000000,0.00,0.0,0.0,1.2,0.00,-0.00,0.99,-0.02,0.58,-0.42,55,67,247
